{
"type": "FeatureCollection",
"name": "sydney_stations",
"crs": { "type": "name", "properties": { "name": "urn:ogc:def:crs:OGC:1.3:CRS84" } },
"features": [
{ "type": "Feature", "properties": { "element": "node", "id": 13877592, "name": "St Leonards" }, "geometry": { "type": "Point", "coordinates": [ 151.194193399999989, -33.822438 ] } },
{ "type": "Feature", "properties": { "element": "node", "id": 15194910, "name": "Marrickville" }, "geometry": { "type": "Point", "coordinates": [ 151.1536185, -33.9139638 ] } },
{ "type": "Feature", "properties": { "element": "node", "id": 15445736, "name": "Green Square" }, "geometry": { "type": "Point", "coordinates": [ 151.2024361, -33.9061988 ] } },
{ "type": "Feature", "properties": { "element": "node", "id": 18372990, "name": "Edgecliff" }, "geometry": { "type": "Point", "coordinates": [ 151.236136499999986, -33.8792403 ] } },
{ "type": "Feature", "properties": { "element": "node", "id": 19140831, "name": "Rooty Hill" }, "geometry": { "type": "Point", "coordinates": [ 150.8450104, -33.7715179 ] } },
{ "type": "Feature", "properties": { "element": "node", "id": 19164434, "name": "Lidcombe" }, "geometry": { "type": "Point", "coordinates": [ 151.045242800000011, -33.8638146 ] } },
{ "type": "Feature", "properties": { "element": "node", "id": 20163894, "name": "Flemington" }, "geometry": { "type": "Point", "coordinates": [ 151.069948, -33.8648765 ] } },
{ "type": "Feature", "properties": { "element": "node", "id": 20918030, "name": "Waterfall" }, "geometry": { "type": "Point", "coordinates": [ 150.9944558, -34.1344488 ] } },
{ "type": "Feature", "properties": { "element": "node", "id": 20941855, "name": "Hurstville" }, "geometry": { "type": "Point", "coordinates": [ 151.1025692, -33.9673964 ] } },
{ "type": "Feature", "properties": { "element": "node", "id": 20955155, "name": "Bondi Junction" }, "geometry": { "type": "Point", "coordinates": [ 151.248455, -33.8912429 ] } },
{ "type": "Feature", "properties": { "element": "node", "id": 20964683, "name": "Clyde" }, "geometry": { "type": "Point", "coordinates": [ 151.017066, -33.8359746 ] } },
{ "type": "Feature", "properties": { "element": "node", "id": 20964687, "name": "Parramatta" }, "geometry": { "type": "Point", "coordinates": [ 151.005400900000012, -33.8175113 ] } },
{ "type": "Feature", "properties": { "element": "node", "id": 20964793, "name": "Bullaburra" }, "geometry": { "type": "Point", "coordinates": [ 150.4147355, -33.7235406 ] } },
{ "type": "Feature", "properties": { "element": "node", "id": 20964794, "name": "Lawson" }, "geometry": { "type": "Point", "coordinates": [ 150.429966900000011, -33.7190214 ] } },
{ "type": "Feature", "properties": { "element": "node", "id": 20964798, "name": "Faulconbridge" }, "geometry": { "type": "Point", "coordinates": [ 150.5350695, -33.6964307 ] } },
{ "type": "Feature", "properties": { "element": "node", "id": 26391532, "name": "Warrawee" }, "geometry": { "type": "Point", "coordinates": [ 151.1217112, -33.7242007 ] } },
{ "type": "Feature", "properties": { "element": "node", "id": 26391583, "name": "Waitara" }, "geometry": { "type": "Point", "coordinates": [ 151.1042928, -33.7099879 ] } },
{ "type": "Feature", "properties": { "element": "node", "id": 26400030, "name": "Concord West" }, "geometry": { "type": "Point", "coordinates": [ 151.0856114, -33.8484033 ] } },
{ "type": "Feature", "properties": { "element": "node", "id": 26428905, "name": "Hurlstone Park" }, "geometry": { "type": "Point", "coordinates": [ 151.1317928, -33.9105924 ] } },
{ "type": "Feature", "properties": { "element": "node", "id": 26621575, "name": "Richmond" }, "geometry": { "type": "Point", "coordinates": [ 150.7526484, -33.598844 ] } },
{ "type": "Feature", "properties": { "element": "node", "id": 26705304, "name": "Thornleigh" }, "geometry": { "type": "Point", "coordinates": [ 151.0783865, -33.731822 ] } },
{ "type": "Feature", "properties": { "element": "node", "id": 26705305, "name": "Pennant Hills" }, "geometry": { "type": "Point", "coordinates": [ 151.0725562, -33.7379225 ] } },
{ "type": "Feature", "properties": { "element": "node", "id": 26705335, "name": "Normanhurst" }, "geometry": { "type": "Point", "coordinates": [ 151.097051099999987, -33.7208458 ] } },
{ "type": "Feature", "properties": { "element": "node", "id": 26774097, "name": "Cabramatta" }, "geometry": { "type": "Point", "coordinates": [ 150.9388097, -33.8950021 ] } },
{ "type": "Feature", "properties": { "element": "node", "id": 32501096, "name": "Turramurra" }, "geometry": { "type": "Point", "coordinates": [ 151.128377699999987, -33.7323074 ] } },
{ "type": "Feature", "properties": { "element": "node", "id": 60024031, "name": "Yallamundi" }, "geometry": { "type": "Point", "coordinates": [ 151.029270700000012, -33.8099627 ] } },
{ "type": "Feature", "properties": { "element": "node", "id": 60024038, "name": "Dundas" }, "geometry": { "type": "Point", "coordinates": [ 151.0332216, -33.8038084 ] } },
{ "type": "Feature", "properties": { "element": "node", "id": 60024116, "name": "Telopea" }, "geometry": { "type": "Point", "coordinates": [ 151.0411442, -33.7944048 ] } },
{ "type": "Feature", "properties": { "element": "node", "id": 60024133, "name": "Carlingford" }, "geometry": { "type": "Point", "coordinates": [ 151.0471842, -33.7819695 ] } },
{ "type": "Feature", "properties": { "element": "node", "id": 60284908, "name": "Blacktown" }, "geometry": { "type": "Point", "coordinates": [ 150.9074065, -33.76845 ] } },
{ "type": "Feature", "properties": { "element": "node", "id": 60285987, "name": "Auburn" }, "geometry": { "type": "Point", "coordinates": [ 151.0328346, -33.8492852 ] } },
{ "type": "Feature", "properties": { "element": "node", "id": 243183100, "name": "Rosehill Gardens" }, "geometry": { "type": "Point", "coordinates": [ 151.0244892, -33.8181399 ] } },
{ "type": "Feature", "properties": { "element": "node", "id": 330756027, "name": "Medlow Bath" }, "geometry": { "type": "Point", "coordinates": [ 150.2806632, -33.6735559 ] } },
{ "type": "Feature", "properties": { "element": "node", "id": 433584509, "name": "Domestic Airport" }, "geometry": { "type": "Point", "coordinates": [ 151.18087220000001, -33.9336301 ] } },
{ "type": "Feature", "properties": { "element": "node", "id": 448630512, "name": "Fairfield" }, "geometry": { "type": "Point", "coordinates": [ 150.957002499999987, -33.8724177 ] } },
{ "type": "Feature", "properties": { "element": "node", "id": 618594832, "name": "Strathfield" }, "geometry": { "type": "Point", "coordinates": [ 151.0942326, -33.871703 ] } },
{ "type": "Feature", "properties": { "element": "node", "id": 630744637, "name": "Burwood" }, "geometry": { "type": "Point", "coordinates": [ 151.1040382, -33.8771445 ] } },
{ "type": "Feature", "properties": { "element": "node", "id": 633285161, "name": "Wentworthville" }, "geometry": { "type": "Point", "coordinates": [ 150.9726612, -33.8071839 ] } },
{ "type": "Feature", "properties": { "element": "node", "id": 634218113, "name": "Carlton" }, "geometry": { "type": "Point", "coordinates": [ 151.1244983, -33.9682381 ] } },
{ "type": "Feature", "properties": { "element": "node", "id": 634228099, "name": "Miranda" }, "geometry": { "type": "Point", "coordinates": [ 151.102695, -34.0363125 ] } },
{ "type": "Feature", "properties": { "element": "node", "id": 792201303, "name": "Menangle Park" }, "geometry": { "type": "Point", "coordinates": [ 150.7449641, -34.103653 ] } },
{ "type": "Feature", "properties": { "element": "node", "id": 1499194256, "name": "Kings Cross" }, "geometry": { "type": "Point", "coordinates": [ 151.2222308, -33.8744874 ] } },
{ "type": "Feature", "properties": { "element": "node", "id": 1557879554, "name": "Artarmon" }, "geometry": { "type": "Point", "coordinates": [ 151.185142500000012, -33.808856 ] } },
{ "type": "Feature", "properties": { "element": "node", "id": 1572445621, "name": "International Airport" }, "geometry": { "type": "Point", "coordinates": [ 151.165874699999989, -33.9349749 ] } },
{ "type": "Feature", "properties": { "element": "node", "id": 1594205983, "name": "Windsor" }, "geometry": { "type": "Point", "coordinates": [ 150.811053500000014, -33.6136867 ] } },
{ "type": "Feature", "properties": { "element": "node", "id": 1663675831, "name": "Kingsgrove" }, "geometry": { "type": "Point", "coordinates": [ 151.1006334, -33.9405679 ] } },
{ "type": "Feature", "properties": { "element": "node", "id": 1670207781, "name": "Doonside" }, "geometry": { "type": "Point", "coordinates": [ 150.868382, -33.7639932 ] } },
{ "type": "Feature", "properties": { "element": "node", "id": 1685405588, "name": "Kogarah" }, "geometry": { "type": "Point", "coordinates": [ 151.132574, -33.9621586 ] } },
{ "type": "Feature", "properties": { "element": "node", "id": 1692720118, "name": "Circular Quay" }, "geometry": { "type": "Point", "coordinates": [ 151.2107193, -33.8613593 ] } },
{ "type": "Feature", "properties": { "element": "node", "id": 1763901273, "name": "Town Hall" }, "geometry": { "type": "Point", "coordinates": [ 151.206849799999986, -33.873567 ] } },
{ "type": "Feature", "properties": { "element": "node", "id": 1778919090, "name": "Engadine" }, "geometry": { "type": "Point", "coordinates": [ 151.0147301, -34.0678648 ] } },
{ "type": "Feature", "properties": { "element": "node", "id": 1829323375, "name": "Milsons Point" }, "geometry": { "type": "Point", "coordinates": [ 151.211790900000011, -33.8458627 ] } },
{ "type": "Feature", "properties": { "element": "node", "id": 1830303527, "name": "Wollstonecraft" }, "geometry": { "type": "Point", "coordinates": [ 151.1917276, -33.8317125 ] } },
{ "type": "Feature", "properties": { "element": "node", "id": 1833786046, "name": "Como" }, "geometry": { "type": "Point", "coordinates": [ 151.068064, -34.0043476 ] } },
{ "type": "Feature", "properties": { "element": "node", "id": 1839276327, "name": "Heathcote" }, "geometry": { "type": "Point", "coordinates": [ 151.0082554, -34.0879621 ] } },
{ "type": "Feature", "properties": { "element": "node", "id": 1843679382, "name": "Mortdale" }, "geometry": { "type": "Point", "coordinates": [ 151.0811258, -33.9708469 ] } },
{ "type": "Feature", "properties": { "element": "node", "id": 1843679387, "name": "Penshurst" }, "geometry": { "type": "Point", "coordinates": [ 151.0891799, -33.9661553 ] } },
{ "type": "Feature", "properties": { "element": "node", "id": 1843700641, "name": "Allawah" }, "geometry": { "type": "Point", "coordinates": [ 151.1145108, -33.9696934 ] } },
{ "type": "Feature", "properties": { "element": "node", "id": 1853644076, "name": "St Peters" }, "geometry": { "type": "Point", "coordinates": [ 151.1806702, -33.9072863 ] } },
{ "type": "Feature", "properties": { "element": "node", "id": 1886174942, "name": "Bardwell Park" }, "geometry": { "type": "Point", "coordinates": [ 151.124884400000013, -33.9316025 ] } },
{ "type": "Feature", "properties": { "element": "node", "id": 1886174956, "name": "Loftus" }, "geometry": { "type": "Point", "coordinates": [ 151.051346099999989, -34.0453436 ] } },
{ "type": "Feature", "properties": { "element": "node", "id": 1886240860, "name": "Ashfield" }, "geometry": { "type": "Point", "coordinates": [ 151.1258176, -33.8876579 ] } },
{ "type": "Feature", "properties": { "element": "node", "id": 1886240861, "name": "Asquith" }, "geometry": { "type": "Point", "coordinates": [ 151.1080776, -33.6886841 ] } },
{ "type": "Feature", "properties": { "element": "node", "id": 1886240863, "name": "Beecroft" }, "geometry": { "type": "Point", "coordinates": [ 151.0663891, -33.7496341 ] } },
{ "type": "Feature", "properties": { "element": "node", "id": 1886240866, "name": "Cheltenham" }, "geometry": { "type": "Point", "coordinates": [ 151.078560399999986, -33.7556798 ] } },
{ "type": "Feature", "properties": { "element": "node", "id": 1886240868, "name": "Denistone" }, "geometry": { "type": "Point", "coordinates": [ 151.0873579, -33.7998488 ] } },
{ "type": "Feature", "properties": { "element": "node", "id": 1886240870, "name": "Eastwood" }, "geometry": { "type": "Point", "coordinates": [ 151.0822564, -33.790128 ] } },
{ "type": "Feature", "properties": { "element": "node", "id": 1886240871, "name": "Gordon" }, "geometry": { "type": "Point", "coordinates": [ 151.1543302, -33.7557991 ] } },
{ "type": "Feature", "properties": { "element": "node", "id": 1886240872, "name": "Katoomba" }, "geometry": { "type": "Point", "coordinates": [ 150.3112294, -33.7118546 ] } },
{ "type": "Feature", "properties": { "element": "node", "id": 1886240875, "name": "Mount Kuring-gai" }, "geometry": { "type": "Point", "coordinates": [ 151.136868099999987, -33.6531707 ] } },
{ "type": "Feature", "properties": { "element": "node", "id": 1886240877, "name": "Petersham" }, "geometry": { "type": "Point", "coordinates": [ 151.1553735, -33.8939113 ] } },
{ "type": "Feature", "properties": { "element": "node", "id": 1886240880, "name": "Punchbowl" }, "geometry": { "type": "Point", "coordinates": [ 151.0557609, -33.9254126 ] } },
{ "type": "Feature", "properties": { "element": "node", "id": 1886240903, "name": "Summer Hill" }, "geometry": { "type": "Point", "coordinates": [ 151.138723199999987, -33.8904591 ] } },
{ "type": "Feature", "properties": { "element": "node", "id": 1886240917, "name": "West Ryde" }, "geometry": { "type": "Point", "coordinates": [ 151.090290399999986, -33.8070374 ] } },
{ "type": "Feature", "properties": { "element": "node", "id": 1886255289, "name": "Blaxland" }, "geometry": { "type": "Point", "coordinates": [ 150.6096243, -33.7436266 ] } },
{ "type": "Feature", "properties": { "element": "node", "id": 1886255290, "name": "Campbelltown" }, "geometry": { "type": "Point", "coordinates": [ 150.8143901, -34.0636278 ] } },
{ "type": "Feature", "properties": { "element": "node", "id": 1886255291, "name": "Clarendon" }, "geometry": { "type": "Point", "coordinates": [ 150.7879859, -33.6086191 ] } },
{ "type": "Feature", "properties": { "element": "node", "id": 1886255293, "name": "East Richmond" }, "geometry": { "type": "Point", "coordinates": [ 150.7591827, -33.6017995 ] } },
{ "type": "Feature", "properties": { "element": "node", "id": 1886255294, "name": "Emu Plains" }, "geometry": { "type": "Point", "coordinates": [ 150.671583700000014, -33.7457008 ] } },
{ "type": "Feature", "properties": { "element": "node", "id": 1886255296, "name": "Glenbrook" }, "geometry": { "type": "Point", "coordinates": [ 150.6207349, -33.7690298 ] } },
{ "type": "Feature", "properties": { "element": "node", "id": 1886255298, "name": "Hazelbrook" }, "geometry": { "type": "Point", "coordinates": [ 150.4544865, -33.7239715 ] } },
{ "type": "Feature", "properties": { "element": "node", "id": 1886255299, "name": "Holsworthy" }, "geometry": { "type": "Point", "coordinates": [ 150.9564652, -33.9632164 ] } },
{ "type": "Feature", "properties": { "element": "node", "id": 1886255300, "name": "Ingleburn" }, "geometry": { "type": "Point", "coordinates": [ 150.864903, -33.9971947 ] } },
{ "type": "Feature", "properties": { "element": "node", "id": 1886255301, "name": "Kingswood" }, "geometry": { "type": "Point", "coordinates": [ 150.7200073, -33.7582886 ] } },
{ "type": "Feature", "properties": { "element": "node", "id": 1886255302, "name": "Kirrawee" }, "geometry": { "type": "Point", "coordinates": [ 151.071911199999988, -34.0349533 ] } },
{ "type": "Feature", "properties": { "element": "node", "id": 1886255303, "name": "Lapstone" }, "geometry": { "type": "Point", "coordinates": [ 150.6427335, -33.7737699 ] } },
{ "type": "Feature", "properties": { "element": "node", "id": 1886255304, "name": "Leumeah" }, "geometry": { "type": "Point", "coordinates": [ 150.8305071, -34.0507604 ] } },
{ "type": "Feature", "properties": { "element": "node", "id": 1886255305, "name": "Leura" }, "geometry": { "type": "Point", "coordinates": [ 150.3304967, -33.7119015 ] } },
{ "type": "Feature", "properties": { "element": "node", "id": 1886255306, "name": "Linden" }, "geometry": { "type": "Point", "coordinates": [ 150.505462599999987, -33.7149196 ] } },
{ "type": "Feature", "properties": { "element": "node", "id": 1886255308, "name": "Macarthur" }, "geometry": { "type": "Point", "coordinates": [ 150.7971899, -34.0719861 ] } },
{ "type": "Feature", "properties": { "element": "node", "id": 1886255309, "name": "Marayong" }, "geometry": { "type": "Point", "coordinates": [ 150.9001907, -33.7461846 ] } },
{ "type": "Feature", "properties": { "element": "node", "id": 1886255310, "name": "Merrylands" }, "geometry": { "type": "Point", "coordinates": [ 150.9923283, -33.8368127 ] } },
{ "type": "Feature", "properties": { "element": "node", "id": 1886255311, "name": "Minto" }, "geometry": { "type": "Point", "coordinates": [ 150.8425751, -34.0272394 ] } },
{ "type": "Feature", "properties": { "element": "node", "id": 1886255312, "name": "Mount Druitt" }, "geometry": { "type": "Point", "coordinates": [ 150.8201965, -33.7695821 ] } },
{ "type": "Feature", "properties": { "element": "node", "id": 1886255314, "name": "Mulgrave" }, "geometry": { "type": "Point", "coordinates": [ 150.830477800000011, -33.6266428 ] } },
{ "type": "Feature", "properties": { "element": "node", "id": 1886255316, "name": "Padstow" }, "geometry": { "type": "Point", "coordinates": [ 151.0323311, -33.9519026 ] } },
{ "type": "Feature", "properties": { "element": "node", "id": 1886255318, "name": "Pendle Hill" }, "geometry": { "type": "Point", "coordinates": [ 150.9564483, -33.8015021 ] } },
{ "type": "Feature", "properties": { "element": "node", "id": 1886255320, "name": "Quakers Hill" }, "geometry": { "type": "Point", "coordinates": [ 150.886482300000011, -33.7277275 ] } },
{ "type": "Feature", "properties": { "element": "node", "id": 1886255321, "name": "Revesby" }, "geometry": { "type": "Point", "coordinates": [ 151.0149093, -33.9525282 ] } },
{ "type": "Feature", "properties": { "element": "node", "id": 1886255322, "name": "Riverstone" }, "geometry": { "type": "Point", "coordinates": [ 150.8602876, -33.6791159 ] } },
{ "type": "Feature", "properties": { "element": "node", "id": 1886255323, "name": "Riverwood" }, "geometry": { "type": "Point", "coordinates": [ 151.0521177, -33.9515059 ] } },
{ "type": "Feature", "properties": { "element": "node", "id": 1886255324, "name": "St Marys" }, "geometry": { "type": "Point", "coordinates": [ 150.7751625, -33.7620938 ] } },
{ "type": "Feature", "properties": { "element": "node", "id": 1886255325, "name": "Tempe" }, "geometry": { "type": "Point", "coordinates": [ 151.1564329, -33.9245392 ] } },
{ "type": "Feature", "properties": { "element": "node", "id": 1886255326, "name": "Toongabbie" }, "geometry": { "type": "Point", "coordinates": [ 150.951463100000012, -33.7874687 ] } },
{ "type": "Feature", "properties": { "element": "node", "id": 1886255327, "name": "Turrella" }, "geometry": { "type": "Point", "coordinates": [ 151.139960800000011, -33.9299188 ] } },
{ "type": "Feature", "properties": { "element": "node", "id": 1886255328, "name": "Valley Heights" }, "geometry": { "type": "Point", "coordinates": [ 150.58387110000001, -33.7044936 ] } },
{ "type": "Feature", "properties": { "element": "node", "id": 1886255329, "name": "Vineyard" }, "geometry": { "type": "Point", "coordinates": [ 150.851123300000012, -33.6504037 ] } },
{ "type": "Feature", "properties": { "element": "node", "id": 1886255330, "name": "Warrimoo" }, "geometry": { "type": "Point", "coordinates": [ 150.6023458, -33.7212855 ] } },
{ "type": "Feature", "properties": { "element": "node", "id": 1886255331, "name": "Werrington" }, "geometry": { "type": "Point", "coordinates": [ 150.7579395, -33.7592193 ] } },
{ "type": "Feature", "properties": { "element": "node", "id": 1886255332, "name": "Wolli Creek" }, "geometry": { "type": "Point", "coordinates": [ 151.1539888, -33.9285225 ] } },
{ "type": "Feature", "properties": { "element": "node", "id": 1886255333, "name": "Woodford" }, "geometry": { "type": "Point", "coordinates": [ 150.4821925, -33.7354736 ] } },
{ "type": "Feature", "properties": { "element": "node", "id": 1886265349, "name": "Berowra" }, "geometry": { "type": "Point", "coordinates": [ 151.153167599999989, -33.6235384 ] } },
{ "type": "Feature", "properties": { "element": "node", "id": 1886265350, "name": "Birrong" }, "geometry": { "type": "Point", "coordinates": [ 151.0240303, -33.8933152 ] } },
{ "type": "Feature", "properties": { "element": "node", "id": 1886265353, "name": "Canley Vale" }, "geometry": { "type": "Point", "coordinates": [ 150.9436605, -33.8872029 ] } },
{ "type": "Feature", "properties": { "element": "node", "id": 1886265354, "name": "Carramar" }, "geometry": { "type": "Point", "coordinates": [ 150.9615133, -33.8843192 ] } },
{ "type": "Feature", "properties": { "element": "node", "id": 1886265357, "name": "Glenfield" }, "geometry": { "type": "Point", "coordinates": [ 150.8930882, -33.9722422 ] } },
{ "type": "Feature", "properties": { "element": "node", "id": 1886265359, "name": "Guildford" }, "geometry": { "type": "Point", "coordinates": [ 150.9844864, -33.8543165 ] } },
{ "type": "Feature", "properties": { "element": "node", "id": 1886265361, "name": "Leightonfield" }, "geometry": { "type": "Point", "coordinates": [ 150.9852256, -33.8815246 ] } },
{ "type": "Feature", "properties": { "element": "node", "id": 1886265363, "name": "Macquarie Fields" }, "geometry": { "type": "Point", "coordinates": [ 150.8789007, -33.9847895 ] } },
{ "type": "Feature", "properties": { "element": "node", "id": 1886265369, "name": "Sefton" }, "geometry": { "type": "Point", "coordinates": [ 151.0114843, -33.8852552 ] } },
{ "type": "Feature", "properties": { "element": "node", "id": 1886265373, "name": "Wahroonga" }, "geometry": { "type": "Point", "coordinates": [ 151.1169979, -33.7175388 ] } },
{ "type": "Feature", "properties": { "element": "node", "id": 1886265375, "name": "Warwick Farm" }, "geometry": { "type": "Point", "coordinates": [ 150.935102300000011, -33.9133304 ] } },
{ "type": "Feature", "properties": { "element": "node", "id": 1886265376, "name": "Waverton" }, "geometry": { "type": "Point", "coordinates": [ 151.197647100000012, -33.8380922 ] } },
{ "type": "Feature", "properties": { "element": "node", "id": 1886265379, "name": "Wynyard" }, "geometry": { "type": "Point", "coordinates": [ 151.2058096, -33.8659903 ] } },
{ "type": "Feature", "properties": { "element": "node", "id": 1886265380, "name": "Yennora" }, "geometry": { "type": "Point", "coordinates": [ 150.9711499, -33.8646287 ] } },
{ "type": "Feature", "properties": { "element": "node", "id": 2130285345, "name": "Schofields" }, "geometry": { "type": "Point", "coordinates": [ 150.8737724, -33.7043304 ] } },
{ "type": "Feature", "properties": { "element": "node", "id": 2267841195, "name": "Chester Hill" }, "geometry": { "type": "Point", "coordinates": [ 150.9994175, -33.8835449 ] } },
{ "type": "Feature", "properties": { "element": "node", "id": 2393270560, "name": "Springwood" }, "geometry": { "type": "Point", "coordinates": [ 150.5639732, -33.6987482 ] } },
{ "type": "Feature", "properties": { "element": "node", "id": 2393270562, "name": "Wentworth Falls" }, "geometry": { "type": "Point", "coordinates": [ 150.376408700000013, -33.70988 ] } },
{ "type": "Feature", "properties": { "element": "node", "id": 2689168291, "name": "Rhodes" }, "geometry": { "type": "Point", "coordinates": [ 151.087060900000012, -33.8304008 ] } },
{ "type": "Feature", "properties": { "element": "node", "id": 2712083828, "name": "Scenic Railway Valley Station" }, "geometry": { "type": "Point", "coordinates": [ 150.301814799999988, -33.7311232 ] } },
{ "type": "Feature", "properties": { "element": "node", "id": 2712085211, "name": "Scenic Railway Top Station" }, "geometry": { "type": "Point", "coordinates": [ 150.3013847, -33.7289792 ] } },
{ "type": "Feature", "properties": { "element": "node", "id": 2746819425, "name": "Marion" }, "geometry": { "type": "Point", "coordinates": [ 151.145122, -33.8839739 ] } },
{ "type": "Feature", "properties": { "element": "node", "id": 2746819429, "name": "Taverners Hill" }, "geometry": { "type": "Point", "coordinates": [ 151.145262300000013, -33.8891648 ] } },
{ "type": "Feature", "properties": { "element": "node", "id": 2746819433, "name": "Hawthorne" }, "geometry": { "type": "Point", "coordinates": [ 151.1472257, -33.879569 ] } },
{ "type": "Feature", "properties": { "element": "node", "id": 2746819434, "name": "Leichhardt North" }, "geometry": { "type": "Point", "coordinates": [ 151.1541434, -33.8749849 ] } },
{ "type": "Feature", "properties": { "element": "node", "id": 3337544919, "name": "Edmondson Park" }, "geometry": { "type": "Point", "coordinates": [ 150.858626, -33.9692716 ] } },
{ "type": "Feature", "properties": { "element": "node", "id": 3754231421, "name": "Yagoona" }, "geometry": { "type": "Point", "coordinates": [ 151.0243075, -33.9067491 ] } },
{ "type": "Feature", "properties": { "element": "node", "id": 4329364693, "name": "Hornsby" }, "geometry": { "type": "Point", "coordinates": [ 151.098392499999989, -33.7034849 ] } },
{ "type": "Feature", "properties": { "element": "node", "id": 4688058740, "name": "Casula" }, "geometry": { "type": "Point", "coordinates": [ 150.9118445, -33.9501572 ] } },
{ "type": "Feature", "properties": { "element": "node", "id": 4689599828, "name": "Wiley Park" }, "geometry": { "type": "Point", "coordinates": [ 151.067336, -33.9229545 ] } },
{ "type": "Feature", "properties": { "element": "node", "id": 4692878089, "name": "Granville" }, "geometry": { "type": "Point", "coordinates": [ 151.0124059, -33.8330942 ] } },
{ "type": "Feature", "properties": { "element": "node", "id": 4735625743, "name": "Newtown" }, "geometry": { "type": "Point", "coordinates": [ 151.179613100000012, -33.8979176 ] } },
{ "type": "Feature", "properties": { "element": "node", "id": 4735626773, "name": "Macdonaldtown" }, "geometry": { "type": "Point", "coordinates": [ 151.1858923, -33.8969053 ] } },
{ "type": "Feature", "properties": { "element": "node", "id": 4887412745, "name": "North Sydney" }, "geometry": { "type": "Point", "coordinates": [ 151.2074639, -33.8412146 ] } },
{ "type": "Feature", "properties": { "element": "node", "id": 5253376705, "name": "Seven Hills" }, "geometry": { "type": "Point", "coordinates": [ 150.9362605, -33.7743672 ] } },
{ "type": "Feature", "properties": { "element": "node", "id": 5692088706, "name": "Dulwich Hill" }, "geometry": { "type": "Point", "coordinates": [ 151.140050300000013, -33.9103059 ] } },
{ "type": "Feature", "properties": { "element": "node", "id": 5692088707, "name": "Dulwich Grove" }, "geometry": { "type": "Point", "coordinates": [ 151.139045399999986, -33.9050316 ] } },
{ "type": "Feature", "properties": { "element": "node", "id": 5692088708, "name": "Arlington" }, "geometry": { "type": "Point", "coordinates": [ 151.1381029, -33.9018878 ] } },
{ "type": "Feature", "properties": { "element": "node", "id": 5692088709, "name": "Waratah Mills" }, "geometry": { "type": "Point", "coordinates": [ 151.140146499999986, -33.8987942 ] } },
{ "type": "Feature", "properties": { "element": "node", "id": 5692088710, "name": "Lewisham West" }, "geometry": { "type": "Point", "coordinates": [ 151.1434089, -33.893838 ] } },
{ "type": "Feature", "properties": { "element": "node", "id": 5692088714, "name": "Lilyfield" }, "geometry": { "type": "Point", "coordinates": [ 151.1650692, -33.874167 ] } },
{ "type": "Feature", "properties": { "element": "node", "id": 5692088717, "name": "Rozelle Bay" }, "geometry": { "type": "Point", "coordinates": [ 151.1727203, -33.8718655 ] } },
{ "type": "Feature", "properties": { "element": "node", "id": 5692088718, "name": "Jubilee Park" }, "geometry": { "type": "Point", "coordinates": [ 151.178721599999989, -33.8754286 ] } },
{ "type": "Feature", "properties": { "element": "node", "id": 5692088720, "name": "Wentworth Park" }, "geometry": { "type": "Point", "coordinates": [ 151.194040699999988, -33.8743907 ] } },
{ "type": "Feature", "properties": { "element": "node", "id": 5692089421, "name": "Bank Street" }, "geometry": { "type": "Point", "coordinates": [ 151.192437899999987, -33.8709375 ] } },
{ "type": "Feature", "properties": { "element": "node", "id": 5692089422, "name": "John Street Square" }, "geometry": { "type": "Point", "coordinates": [ 151.1920361, -33.8674297 ] } },
{ "type": "Feature", "properties": { "element": "node", "id": 5692089423, "name": "The Star" }, "geometry": { "type": "Point", "coordinates": [ 151.1952923, -33.8676611 ] } },
{ "type": "Feature", "properties": { "element": "node", "id": 5692089424, "name": "Pyrmont Bay" }, "geometry": { "type": "Point", "coordinates": [ 151.1975783, -33.8694257 ] } },
{ "type": "Feature", "properties": { "element": "node", "id": 5692089425, "name": "Convention" }, "geometry": { "type": "Point", "coordinates": [ 151.198069800000013, -33.8725775 ] } },
{ "type": "Feature", "properties": { "element": "node", "id": 5692089426, "name": "Exhibition Centre" }, "geometry": { "type": "Point", "coordinates": [ 151.1996527, -33.8772478 ] } },
{ "type": "Feature", "properties": { "element": "node", "id": 5692089427, "name": "Paddy's Markets" }, "geometry": { "type": "Point", "coordinates": [ 151.2027158, -33.8793182 ] } },
{ "type": "Feature", "properties": { "element": "node", "id": 5692089432, "name": "Capitol Square" }, "geometry": { "type": "Point", "coordinates": [ 151.2056706, -33.8798044 ] } },
{ "type": "Feature", "properties": { "element": "node", "id": 5692089433, "name": "Central Grand Concourse" }, "geometry": { "type": "Point", "coordinates": [ 151.2067227, -33.8824091 ] } },
{ "type": "Feature", "properties": { "element": "node", "id": 6497471265, "name": "Chatswood" }, "geometry": { "type": "Point", "coordinates": [ 151.180939, -33.7974806 ] } },
{ "type": "Feature", "properties": { "element": "node", "id": 6503400516, "name": "Epping" }, "geometry": { "type": "Point", "coordinates": [ 151.08209020000001, -33.7728628 ] } },
{ "type": "Feature", "properties": { "element": "node", "id": 6544860724, "name": "Meadowbank" }, "geometry": { "type": "Point", "coordinates": [ 151.0900998, -33.8159137 ] } },
{ "type": "Feature", "properties": { "element": "node", "id": 6553012201, "name": "Belmore" }, "geometry": { "type": "Point", "coordinates": [ 151.0887104, -33.9171961 ] } },
{ "type": "Feature", "properties": { "element": "node", "id": 6553012213, "name": "Roseville" }, "geometry": { "type": "Point", "coordinates": [ 151.177550599999989, -33.7843685 ] } },
{ "type": "Feature", "properties": { "element": "node", "id": 6553012216, "name": "Lindfield" }, "geometry": { "type": "Point", "coordinates": [ 151.169214399999987, -33.7756095 ] } },
{ "type": "Feature", "properties": { "element": "node", "id": 6553012244, "name": "Croydon" }, "geometry": { "type": "Point", "coordinates": [ 151.115595500000012, -33.8832296 ] } },
{ "type": "Feature", "properties": { "element": "node", "id": 6553012245, "name": "North Strathfield" }, "geometry": { "type": "Point", "coordinates": [ 151.0881331, -33.8590236 ] } },
{ "type": "Feature", "properties": { "element": "node", "id": 6560219244, "name": "Mascot" }, "geometry": { "type": "Point", "coordinates": [ 151.1872655, -33.9231912 ] } },
{ "type": "Feature", "properties": { "element": "node", "id": 6560219252, "name": "Narwee" }, "geometry": { "type": "Point", "coordinates": [ 151.0702555, -33.9475765 ] } },
{ "type": "Feature", "properties": { "element": "node", "id": 6560219259, "name": "Panania" }, "geometry": { "type": "Point", "coordinates": [ 150.9978399, -33.9543358 ] } },
{ "type": "Feature", "properties": { "element": "node", "id": 6560219263, "name": "East Hills" }, "geometry": { "type": "Point", "coordinates": [ 150.9846273, -33.9618532 ] } },
{ "type": "Feature", "properties": { "element": "node", "id": 6571195040, "name": "Sydenham" }, "geometry": { "type": "Point", "coordinates": [ 151.166106899999988, -33.9147428 ] } },
{ "type": "Feature", "properties": { "element": "node", "id": 6576039170, "name": "Bexley North" }, "geometry": { "type": "Point", "coordinates": [ 151.1134896, -33.9375479 ] } },
{ "type": "Feature", "properties": { "element": "node", "id": 6576039172, "name": "Beverly Hills" }, "geometry": { "type": "Point", "coordinates": [ 151.0810471, -33.9490787 ] } },
{ "type": "Feature", "properties": { "element": "node", "id": 6601585113, "name": "Martin Place" }, "geometry": { "type": "Point", "coordinates": [ 151.210759, -33.8678177 ] } },
{ "type": "Feature", "properties": { "element": "node", "id": 6615213260, "name": "Lakemba" }, "geometry": { "type": "Point", "coordinates": [ 151.0758653, -33.9201175 ] } },
{ "type": "Feature", "properties": { "element": "node", "id": 6616036388, "name": "Liverpool" }, "geometry": { "type": "Point", "coordinates": [ 150.9276398, -33.9245421 ] } },
{ "type": "Feature", "properties": { "element": "node", "id": 6616036405, "name": "Harris Park" }, "geometry": { "type": "Point", "coordinates": [ 151.0076541, -33.8233375 ] } },
{ "type": "Feature", "properties": { "element": "node", "id": 6616036413, "name": "Westmead" }, "geometry": { "type": "Point", "coordinates": [ 150.9880176, -33.8084959 ] } },
{ "type": "Feature", "properties": { "element": "node", "id": 6618892734, "name": "Homebush" }, "geometry": { "type": "Point", "coordinates": [ 151.0864608, -33.8668117 ] } },
{ "type": "Feature", "properties": { "element": "node", "id": 6618892735, "name": "Stanmore" }, "geometry": { "type": "Point", "coordinates": [ 151.163907200000011, -33.8945133 ] } },
{ "type": "Feature", "properties": { "element": "node", "id": 6618892736, "name": "Lewisham" }, "geometry": { "type": "Point", "coordinates": [ 151.1476275, -33.8933685 ] } },
{ "type": "Feature", "properties": { "element": "node", "id": 6620581678, "name": "Woolooware" }, "geometry": { "type": "Point", "coordinates": [ 151.1440873, -34.0476621 ] } },
{ "type": "Feature", "properties": { "element": "node", "id": 6620581680, "name": "Caringbah" }, "geometry": { "type": "Point", "coordinates": [ 151.122739599999989, -34.0415962 ] } },
{ "type": "Feature", "properties": { "element": "node", "id": 6620581683, "name": "Gymea" }, "geometry": { "type": "Point", "coordinates": [ 151.08551460000001, -34.0348927 ] } },
{ "type": "Feature", "properties": { "element": "node", "id": 6620600087, "name": "Cronulla" }, "geometry": { "type": "Point", "coordinates": [ 151.1514553, -34.0557283 ] } },
{ "type": "Feature", "properties": { "element": "node", "id": 6620600094, "name": "Banksia" }, "geometry": { "type": "Point", "coordinates": [ 151.140407, -33.9453399 ] } },
{ "type": "Feature", "properties": { "element": "node", "id": 6620600106, "name": "Rockdale" }, "geometry": { "type": "Point", "coordinates": [ 151.1368534, -33.9518729 ] } },
{ "type": "Feature", "properties": { "element": "node", "id": 6620600130, "name": "Arncliffe" }, "geometry": { "type": "Point", "coordinates": [ 151.1473489, -33.936435 ] } },
{ "type": "Feature", "properties": { "element": "node", "id": 6620600140, "name": "Oatley" }, "geometry": { "type": "Point", "coordinates": [ 151.0790256, -33.9805174 ] } },
{ "type": "Feature", "properties": { "element": "node", "id": 6620600145, "name": "Jannali" }, "geometry": { "type": "Point", "coordinates": [ 151.06463, -34.015952 ] } },
{ "type": "Feature", "properties": { "element": "node", "id": 6620600147, "name": "Sutherland" }, "geometry": { "type": "Point", "coordinates": [ 151.0572738, -34.0316252 ] } },
{ "type": "Feature", "properties": { "element": "node", "id": 6624452553, "name": "Penrith" }, "geometry": { "type": "Point", "coordinates": [ 150.696094, -33.7499883 ] } },
{ "type": "Feature", "properties": { "element": "node", "id": 6624452584, "name": "Mount Colah" }, "geometry": { "type": "Point", "coordinates": [ 151.1145291, -33.6719686 ] } },
{ "type": "Feature", "properties": { "element": "node", "id": 6624454793, "name": "Pymble" }, "geometry": { "type": "Point", "coordinates": [ 151.1419726, -33.7447018 ] } },
{ "type": "Feature", "properties": { "element": "node", "id": 6627573507, "name": "Berala" }, "geometry": { "type": "Point", "coordinates": [ 151.0322942, -33.8719154 ] } },
{ "type": "Feature", "properties": { "element": "node", "id": 6627573510, "name": "Regents Park" }, "geometry": { "type": "Point", "coordinates": [ 151.024278399999986, -33.8828393 ] } },
{ "type": "Feature", "properties": { "element": "node", "id": 6627573513, "name": "Villawood" }, "geometry": { "type": "Point", "coordinates": [ 150.9761642, -33.8808812 ] } },
{ "type": "Feature", "properties": { "element": "node", "id": 6627573522, "name": "Bankstown" }, "geometry": { "type": "Point", "coordinates": [ 151.034640200000013, -33.917844 ] } },
{ "type": "Feature", "properties": { "element": "node", "id": 6627573530, "name": "Campsie" }, "geometry": { "type": "Point", "coordinates": [ 151.1026511, -33.9105708 ] } },
{ "type": "Feature", "properties": { "element": "node", "id": 6627573533, "name": "Canterbury" }, "geometry": { "type": "Point", "coordinates": [ 151.1186885, -33.9119882 ] } },
{ "type": "Feature", "properties": { "element": "node", "id": 6627573536, "name": "Dulwich Hill" }, "geometry": { "type": "Point", "coordinates": [ 151.140913, -33.9110089 ] } },
{ "type": "Feature", "properties": { "element": "node", "id": 6627573542, "name": "Erskineville" }, "geometry": { "type": "Point", "coordinates": [ 151.1852676, -33.9009517 ] } },
{ "type": "Feature", "properties": { "element": "node", "id": 9602630233, "name": "Tramway Avenue" }, "geometry": { "type": "Point", "coordinates": [ 151.018511100000012, -33.817206 ] } },
{ "type": "Feature", "properties": { "element": "node", "id": 9602630234, "name": "Robin Thomas" }, "geometry": { "type": "Point", "coordinates": [ 151.0112047, -33.8169223 ] } },
{ "type": "Feature", "properties": { "element": "node", "id": 9602630235, "name": "Parramatta Square" }, "geometry": { "type": "Point", "coordinates": [ 151.0051301, -33.815554 ] } },
{ "type": "Feature", "properties": { "element": "node", "id": 9602630236, "name": "Church Street" }, "geometry": { "type": "Point", "coordinates": [ 151.0036168, -33.8129468 ] } },
{ "type": "Feature", "properties": { "element": "node", "id": 9602630237, "name": "Prince Alfred Square" }, "geometry": { "type": "Point", "coordinates": [ 151.0052567, -33.8090725 ] } },
{ "type": "Feature", "properties": { "element": "node", "id": 9602630238, "name": "Fennell Street" }, "geometry": { "type": "Point", "coordinates": [ 151.0058333, -33.8051861 ] } },
{ "type": "Feature", "properties": { "element": "node", "id": 9602630239, "name": "Benaud Oval" }, "geometry": { "type": "Point", "coordinates": [ 151.0045582, -33.800814 ] } },
{ "type": "Feature", "properties": { "element": "node", "id": 9602630240, "name": "Ngara" }, "geometry": { "type": "Point", "coordinates": [ 151.0013831, -33.8014592 ] } },
{ "type": "Feature", "properties": { "element": "node", "id": 9602630241, "name": "Childrens Hospital" }, "geometry": { "type": "Point", "coordinates": [ 150.993035600000013, -33.802589 ] } },
{ "type": "Feature", "properties": { "element": "node", "id": 9602630242, "name": "Westmead Hospital" }, "geometry": { "type": "Point", "coordinates": [ 150.9900754, -33.804709 ] } },
{ "type": "Feature", "properties": { "element": "relation", "id": 16741089, "name": "Juniors Kingsford" }, "geometry": { "type": "MultiPolygon", "coordinates": [ [ [ [ 151.22943570000001, -33.925368 ], [ 151.229406, -33.9253963 ], [ 151.229387, -33.9253836 ], [ 151.228893, -33.9250487 ], [ 151.2287373, -33.9249409 ], [ 151.228762100000012, -33.9249164 ], [ 151.22943570000001, -33.925368 ] ] ], [ [ [ 151.2296055, -33.9251934 ], [ 151.2289366, -33.9247403 ], [ 151.228965100000011, -33.924715 ], [ 151.2291078, -33.924808 ], [ 151.2296378, -33.9251627 ], [ 151.2296055, -33.9251934 ] ] ] ] } },
{ "type": "Feature", "properties": { "element": "way", "id": 19003982, "name": "Olympic Park" }, "geometry": { "type": "Polygon", "coordinates": [ [ [ 151.0684277, -33.8467527 ], [ 151.06879330000001, -33.8466175 ], [ 151.0690952, -33.8465058 ], [ 151.0693676, -33.8464072 ], [ 151.0695, -33.8463579 ], [ 151.0699291, -33.8461981 ], [ 151.0701585, -33.8461126 ], [ 151.0704638, -33.8460073 ], [ 151.0705015, -33.8460125 ], [ 151.070525, -33.8460193 ], [ 151.07056080000001, -33.8460353 ], [ 151.070586, -33.8460514 ], [ 151.07062, -33.8460836 ], [ 151.0706452, -33.8461159 ], [ 151.0706605, -33.8461522 ], [ 151.0706695, -33.8462065 ], [ 151.0706695, -33.8462421 ], [ 151.0706549, -33.8462807 ], [ 151.0706094, -33.8463319 ], [ 151.0703174, -33.8464342 ], [ 151.070097299999986, -33.8465148 ], [ 151.069662099999988, -33.8466741 ], [ 151.069532, -33.8467217 ], [ 151.0692685, -33.8468181 ], [ 151.0689643, -33.8469295 ], [ 151.0686, -33.8470628 ], [ 151.0685652, -33.8470665 ], [ 151.0685215, -33.84707 ], [ 151.0684718, -33.847056 ], [ 151.0684331, -33.8470355 ], [ 151.068399199999988, -33.8470062 ], [ 151.068386299999986, -33.8469889 ], [ 151.0683637, -33.8469463 ], [ 151.0683535, -33.8468992 ], [ 151.0683532, -33.8468669 ], [ 151.0683631, -33.8468337 ], [ 151.0683798, -33.8467964 ], [ 151.0684277, -33.8467527 ] ] ] } },
{ "type": "Feature", "properties": { "element": "way", "id": 50940824, "name": "Museum" }, "geometry": { "type": "Polygon", "coordinates": [ [ [ 151.2094686, -33.8767475 ], [ 151.2096259, -33.8768044 ], [ 151.209719299999989, -33.8766334 ], [ 151.20986, -33.8764798 ], [ 151.209893, -33.8764544 ], [ 151.2099052, -33.876428 ], [ 151.209960700000011, -33.8763083 ], [ 151.2105239, -33.8751088 ], [ 151.2101614, -33.8749869 ], [ 151.210135400000013, -33.8750409 ], [ 151.2101036, -33.8751048 ], [ 151.2102396, -33.8751493 ], [ 151.2094686, -33.8767475 ] ] ] } },
{ "type": "Feature", "properties": { "element": "way", "id": 317138648, "name": "Leppington" }, "geometry": { "type": "Polygon", "coordinates": [ [ [ 150.8072185, -33.9540296 ], [ 150.807111600000013, -33.9544399 ], [ 150.8089105, -33.9547566 ], [ 150.8090152, -33.9543315 ], [ 150.8072185, -33.9540296 ] ] ] } },
{ "type": "Feature", "properties": { "element": "way", "id": 534701314, "name": "Hawkesbury River" }, "geometry": { "type": "Polygon", "coordinates": [ [ [ 151.2264429, -33.5469558 ], [ 151.226475, -33.5469885 ], [ 151.2261676, -33.5471976 ], [ 151.2261503, -33.5472094 ], [ 151.2261183, -33.5471767 ], [ 151.2261365, -33.5471643 ], [ 151.2264429, -33.5469558 ] ] ] } },
{ "type": "Feature", "properties": { "element": "way", "id": 585998416, "name": "Redfern" }, "geometry": { "type": "Polygon", "coordinates": [ [ [ 151.197836700000011, -33.8928436 ], [ 151.1980321, -33.8927473 ], [ 151.1981466, -33.892744 ], [ 151.1982779, -33.892682 ], [ 151.198437, -33.8926068 ], [ 151.1984804, -33.8925857 ], [ 151.1986657, -33.8924938 ], [ 151.198707, -33.8924734 ], [ 151.198722299999986, -33.8924648 ], [ 151.198867799999988, -33.892381 ], [ 151.198891, -33.8923481 ], [ 151.198981, -33.8922204 ], [ 151.1990941, -33.8921921 ], [ 151.199167100000011, -33.8921274 ], [ 151.1992438, -33.8920338 ], [ 151.1992923, -33.8919852 ], [ 151.199377199999986, -33.8920201 ], [ 151.1992339, -33.8922645 ], [ 151.1993038, -33.8922958 ], [ 151.1993455, -33.8923146 ], [ 151.1994972, -33.892067 ], [ 151.1996059, -33.8918425 ], [ 151.1995958, -33.8918384 ], [ 151.1995138, -33.8918053 ], [ 151.199464, -33.8917859 ], [ 151.199433699999986, -33.8917735 ], [ 151.1994727, -33.8917166 ], [ 151.1994564, -33.8917093 ], [ 151.1991678, -33.8916621 ], [ 151.1988333, -33.8916172 ], [ 151.1986077, -33.8915848 ], [ 151.198539899999986, -33.891573 ], [ 151.198521, -33.89157 ], [ 151.1979551, -33.892004 ], [ 151.197669100000013, -33.8921842 ], [ 151.1976311, -33.8922081 ], [ 151.197284, -33.8923297 ], [ 151.1970622, -33.8924743 ], [ 151.1975018, -33.8930098 ], [ 151.197836700000011, -33.8928436 ] ] ] } },
{ "type": "Feature", "properties": { "element": "way", "id": 677568469, "name": "North Ryde" }, "geometry": { "type": "Polygon", "coordinates": [ [ [ 151.137076, -33.794172 ], [ 151.1371526, -33.7939319 ], [ 151.1390715, -33.7943761 ], [ 151.1389168, -33.7948492 ], [ 151.1386204, -33.7947831 ], [ 151.1386445, -33.7947083 ], [ 151.1387286, -33.7947271 ], [ 151.1387461, -33.7946728 ], [ 151.1387934, -33.7946833 ], [ 151.138835199999988, -33.794554 ], [ 151.138168, -33.7944051 ], [ 151.138108, -33.7945908 ], [ 151.1380215, -33.7945704 ], [ 151.137910299999987, -33.7949042 ], [ 151.13769210000001, -33.7948556 ], [ 151.1377996, -33.7945232 ], [ 151.137706799999989, -33.7945025 ], [ 151.137764, -33.7943256 ], [ 151.137076, -33.794172 ] ] ] } },
{ "type": "Feature", "properties": { "element": "way", "id": 677568470, "name": "Macquarie Park" }, "geometry": { "type": "Polygon", "coordinates": [ [ [ 151.127513599999986, -33.7848033 ], [ 151.12780810000001, -33.7845286 ], [ 151.1290568, -33.7854531 ], [ 151.1287624, -33.7857278 ], [ 151.127513599999986, -33.7848033 ] ] ] } },
{ "type": "Feature", "properties": { "element": "way", "id": 677568471, "name": "Macquarie University" }, "geometry": { "type": "Polygon", "coordinates": [ [ [ 151.119248700000014, -33.7778526 ], [ 151.11887680000001, -33.7782117 ], [ 151.1171479, -33.7769747 ], [ 151.1175198, -33.7766156 ], [ 151.119248700000014, -33.7778526 ] ] ] } },
{ "type": "Feature", "properties": { "element": "way", "id": 677568472, "name": "Cherrybrook" }, "geometry": { "type": "Polygon", "coordinates": [ [ [ 151.0311696, -33.7359032 ], [ 151.0312817, -33.7359723 ], [ 151.0312317, -33.7360302 ], [ 151.031489599999986, -33.7361953 ], [ 151.0314698, -33.7362175 ], [ 151.0326643, -33.7369804 ], [ 151.032804199999987, -33.7370713 ], [ 151.0326479, -33.7372495 ], [ 151.0325053, -33.7371584 ], [ 151.0324673, -33.7372009 ], [ 151.031273199999987, -33.7364377 ], [ 151.0313113, -33.7363949 ], [ 151.030948200000012, -33.7361564 ], [ 151.0311207, -33.7359591 ], [ 151.0311696, -33.7359032 ] ] ] } },
{ "type": "Feature", "properties": { "element": "way", "id": 677568473, "name": "Castle Hill" }, "geometry": { "type": "Polygon", "coordinates": [ [ [ 151.006829900000014, -33.7318392 ], [ 151.0067654, -33.7316639 ], [ 151.007084099999986, -33.7314599 ], [ 151.0072869, -33.7313172 ], [ 151.0073114, -33.7313002 ], [ 151.0074061, -33.7312323 ], [ 151.0074951, -33.7313246 ], [ 151.0073701, -33.7313576 ], [ 151.0074227, -33.7314943 ], [ 151.007493399999987, -33.7314786 ], [ 151.0084599, -33.7312258 ], [ 151.0084574, -33.7312148 ], [ 151.008781, -33.7311254 ], [ 151.0088514, -33.7313157 ], [ 151.008524, -33.7314033 ], [ 151.0085221, -33.7313862 ], [ 151.006829900000014, -33.7318392 ] ] ] } },
{ "type": "Feature", "properties": { "element": "way", "id": 677568474, "name": "Hills Showground" }, "geometry": { "type": "Polygon", "coordinates": [ [ [ 150.9867237, -33.7279198 ], [ 150.9879913, -33.7275234 ], [ 150.9880651, -33.7276867 ], [ 150.9867974, -33.7280829 ], [ 150.9867237, -33.7279198 ] ] ] } },
{ "type": "Feature", "properties": { "element": "way", "id": 677568475, "name": "Norwest" }, "geometry": { "type": "Polygon", "coordinates": [ [ [ 150.9634931, -33.7349807 ], [ 150.963278699999989, -33.7348288 ], [ 150.9632264, -33.734785 ], [ 150.9632205, -33.7347795 ], [ 150.9632152, -33.7347734 ], [ 150.963210299999986, -33.734767 ], [ 150.9632061, -33.7347601 ], [ 150.9632024, -33.7347529 ], [ 150.9631994, -33.7347455 ], [ 150.963197, -33.7347378 ], [ 150.9631953, -33.7347299 ], [ 150.9631942, -33.7347219 ], [ 150.9631938, -33.7347138 ], [ 150.96319410000001, -33.7347058 ], [ 150.9631951, -33.7346978 ], [ 150.9631968, -33.7346899 ], [ 150.9631991, -33.7346822 ], [ 150.9632021, -33.7346747 ], [ 150.9632057, -33.7346674 ], [ 150.96320990000001, -33.7346606 ], [ 150.9632147, -33.7346541 ], [ 150.96322, -33.734648 ], [ 150.9632258, -33.7346424 ], [ 150.9632321, -33.7346373 ], [ 150.9632387, -33.7346327 ], [ 150.964478899999989, -33.733543 ], [ 150.9647616, -33.7337685 ], [ 150.964152399999989, -33.7343072 ], [ 150.9637698, -33.7346357 ], [ 150.9638318, -33.734686 ], [ 150.963591, -33.7348971 ], [ 150.9635371, -33.7349431 ], [ 150.9634931, -33.7349807 ] ] ] } },
{ "type": "Feature", "properties": { "element": "way", "id": 677568476, "name": "Bella Vista" }, "geometry": { "type": "Polygon", "coordinates": [ [ [ 150.944438600000012, -33.732272 ], [ 150.9444452, -33.7322639 ], [ 150.9444488, -33.7322553 ], [ 150.9444516, -33.7322464 ], [ 150.9444536, -33.7322373 ], [ 150.9444546, -33.732228 ], [ 150.944454799999988, -33.7322187 ], [ 150.9444542, -33.7322094 ], [ 150.9444526, -33.7322002 ], [ 150.9444502, -33.7321912 ], [ 150.9440445, -33.731243 ], [ 150.9435731, -33.7300851 ], [ 150.943396, -33.7296797 ], [ 150.9433104, -33.7295 ], [ 150.9432329, -33.7293661 ], [ 150.943113399999987, -33.7291012 ], [ 150.9431095, -33.7290926 ], [ 150.943482100000011, -33.7289755 ], [ 150.9434932, -33.7289739 ], [ 150.9435044, -33.7289734 ], [ 150.943515600000012, -33.728974 ], [ 150.9435267, -33.7289756 ], [ 150.943537600000013, -33.7289782 ], [ 150.9435482, -33.7289819 ], [ 150.9435584, -33.7289865 ], [ 150.9435681, -33.7289921 ], [ 150.943577299999987, -33.7289985 ], [ 150.9435858, -33.7290058 ], [ 150.943593600000014, -33.7290138 ], [ 150.9436006, -33.7290226 ], [ 150.944364400000012, -33.7307658 ], [ 150.9444986, -33.7310056 ], [ 150.9445671, -33.7311541 ], [ 150.944612799999987, -33.7312628 ], [ 150.9446558, -33.7313725 ], [ 150.94469620000001, -33.7314833 ], [ 150.944733899999989, -33.7315949 ], [ 150.944769, -33.7317075 ], [ 150.9448012, -33.7318208 ], [ 150.9448626, -33.7320521 ], [ 150.9448619, -33.7320635 ], [ 150.9448602, -33.7320748 ], [ 150.944857500000012, -33.7320859 ], [ 150.9448538, -33.7320968 ], [ 150.9448492, -33.7321072 ], [ 150.944843600000013, -33.7321172 ], [ 150.9448372, -33.7321266 ], [ 150.94483, -33.7321355 ], [ 150.944822, -33.7321437 ], [ 150.9448133, -33.7321511 ], [ 150.944804, -33.7321577 ], [ 150.9447941, -33.7321635 ], [ 150.944438600000012, -33.732272 ] ] ] } },
{ "type": "Feature", "properties": { "element": "way", "id": 677568477, "name": "Kellyville" }, "geometry": { "type": "Polygon", "coordinates": [ [ [ 150.935970700000013, -33.7141578 ], [ 150.9359911, -33.7141987 ], [ 150.9359282, -33.7142205 ], [ 150.9355574, -33.714349 ], [ 150.935553, -33.7143403 ], [ 150.9354837, -33.7143643 ], [ 150.935468, -33.7143331 ], [ 150.9354296, -33.7143464 ], [ 150.9353645, -33.714369 ], [ 150.9353802, -33.7144003 ], [ 150.9353515, -33.7144102 ], [ 150.9353039, -33.7143152 ], [ 150.9354799, -33.7142542 ], [ 150.93515, -33.7135955 ], [ 150.9351326, -33.7136016 ], [ 150.935072600000012, -33.7134819 ], [ 150.934917500000012, -33.7131721 ], [ 150.9349014, -33.7131401 ], [ 150.934820300000013, -33.712978 ], [ 150.934595, -33.7125282 ], [ 150.9345616, -33.7124616 ], [ 150.9345524, -33.7124431 ], [ 150.9345438, -33.712432 ], [ 150.934531, -33.7124197 ], [ 150.934515299999987, -33.7124088 ], [ 150.9344992, -33.7123994 ], [ 150.9344757, -33.7123888 ], [ 150.9344546, -33.7123791 ], [ 150.9344386, -33.712368 ], [ 150.9344251, -33.7123517 ], [ 150.934414299999986, -33.7123341 ], [ 150.934397100000012, -33.7122996 ], [ 150.9343843, -33.7122741 ], [ 150.934370800000011, -33.7122471 ], [ 150.934360700000013, -33.7122309 ], [ 150.9343498, -33.7122185 ], [ 150.9343223, -33.7121934 ], [ 150.9343097, -33.7121834 ], [ 150.9343, -33.7121736 ], [ 150.9342905, -33.7121611 ], [ 150.9342474, -33.7120751 ], [ 150.9342328, -33.7120576 ], [ 150.9342197, -33.7120446 ], [ 150.934205, -33.7120311 ], [ 150.934186899999986, -33.7120083 ], [ 150.9341715, -33.7119905 ], [ 150.9341827, -33.7119772 ], [ 150.934196500000013, -33.7119651 ], [ 150.9342216, -33.7119495 ], [ 150.934256299999987, -33.711935 ], [ 150.9343268, -33.7119117 ], [ 150.9344051, -33.7118895 ], [ 150.93454220000001, -33.7118499 ], [ 150.934575099999989, -33.7118437 ], [ 150.9346281, -33.7118388 ], [ 150.934665099999989, -33.7118374 ], [ 150.9347199, -33.7118409 ], [ 150.934756, -33.7118437 ], [ 150.934771899999987, -33.7118456 ], [ 150.9347857, -33.7118483 ], [ 150.9347979, -33.7118522 ], [ 150.9348084, -33.7118561 ], [ 150.9348153, -33.7118589 ], [ 150.9348324, -33.7118683 ], [ 150.934851900000012, -33.7118826 ], [ 150.934872, -33.7119043 ], [ 150.9348914, -33.7119347 ], [ 150.935288899999989, -33.7127335 ], [ 150.935305699999986, -33.712767 ], [ 150.9353165, -33.7127887 ], [ 150.935329200000012, -33.7128141 ], [ 150.9353983, -33.7129519 ], [ 150.935403799999989, -33.712963 ], [ 150.93541350000001, -33.7129823 ], [ 150.9354241, -33.7130036 ], [ 150.9354284, -33.7130122 ], [ 150.935516400000012, -33.7131878 ], [ 150.935806500000012, -33.7137641 ], [ 150.935844, -33.7138388 ], [ 150.9358158, -33.7138486 ], [ 150.935871100000014, -33.713959 ], [ 150.9359033, -33.7140233 ], [ 150.935914, -33.7140447 ], [ 150.9359221, -33.7140608 ], [ 150.9359326, -33.7140817 ], [ 150.9359403, -33.7140971 ], [ 150.935960599999987, -33.7141377 ], [ 150.935970700000013, -33.7141578 ] ] ] } },
{ "type": "Feature", "properties": { "element": "way", "id": 677568478, "name": "Rouse Hill" }, "geometry": { "type": "Polygon", "coordinates": [ [ [ 150.9228268, -33.6904575 ], [ 150.9228554, -33.6904404 ], [ 150.9229848, -33.6903166 ], [ 150.9230895, -33.6902557 ], [ 150.9230997, -33.6902601 ], [ 150.92310950000001, -33.6902653 ], [ 150.9231187, -33.6902715 ], [ 150.9231273, -33.6902784 ], [ 150.923135300000013, -33.6902861 ], [ 150.923142500000012, -33.6902946 ], [ 150.9231489, -33.6903036 ], [ 150.923154399999987, -33.6903132 ], [ 150.9231591, -33.6903233 ], [ 150.9231627, -33.6903337 ], [ 150.92316550000001, -33.6903445 ], [ 150.9231672, -33.6903554 ], [ 150.92316790000001, -33.6903665 ], [ 150.9231675, -33.6903776 ], [ 150.9231695, -33.690393 ], [ 150.9231727, -33.6904082 ], [ 150.9231773, -33.690423 ], [ 150.9231833, -33.6904374 ], [ 150.9231905, -33.6904512 ], [ 150.9231988, -33.6904643 ], [ 150.9232084, -33.6904766 ], [ 150.9232189, -33.690488 ], [ 150.9236948, -33.6910514 ], [ 150.925424, -33.6930427 ], [ 150.925434, -33.6930574 ], [ 150.9254427, -33.6930729 ], [ 150.9254499, -33.6930892 ], [ 150.9254556, -33.693106 ], [ 150.9254597, -33.6931233 ], [ 150.9254621, -33.6931409 ], [ 150.925463, -33.6931587 ], [ 150.9254622, -33.6931764 ], [ 150.9254598, -33.693194 ], [ 150.9254558, -33.6932114 ], [ 150.9254502, -33.6932282 ], [ 150.925443, -33.6932445 ], [ 150.9252366, -33.6933699 ], [ 150.923809799999987, -33.6916588 ], [ 150.923636499999986, -33.6914494 ], [ 150.9236042, -33.69136 ], [ 150.923086399999988, -33.6907585 ], [ 150.923006500000014, -33.6906937 ], [ 150.9228999, -33.69057 ], [ 150.9228268, -33.6904575 ] ] ] } },
{ "type": "Feature", "properties": { "element": "way", "id": 677568479, "name": "Tallawong" }, "geometry": { "type": "Polygon", "coordinates": [ [ [ 150.904068599999988, -33.6920224 ], [ 150.904057099999989, -33.6919443 ], [ 150.9040606, -33.6919328 ], [ 150.9040651, -33.6919217 ], [ 150.904070600000011, -33.691911 ], [ 150.9040769, -33.6919008 ], [ 150.9040842, -33.6918912 ], [ 150.9040923, -33.6918823 ], [ 150.9041011, -33.6918742 ], [ 150.9041106, -33.6918668 ], [ 150.9041207, -33.6918604 ], [ 150.904131400000011, -33.6918548 ], [ 150.906617399999988, -33.6910668 ], [ 150.9066358, -33.6910608 ], [ 150.9066546, -33.6910565 ], [ 150.9066737, -33.6910539 ], [ 150.9066929, -33.691053 ], [ 150.906712199999987, -33.6910538 ], [ 150.9067313, -33.6910564 ], [ 150.906750100000011, -33.6910606 ], [ 150.9067684, -33.6910665 ], [ 150.9067862, -33.691074 ], [ 150.906803200000013, -33.6910831 ], [ 150.9068193, -33.6910937 ], [ 150.9068344, -33.6911057 ], [ 150.9068484, -33.6911189 ], [ 150.906861099999986, -33.6911334 ], [ 150.9069867, -33.6914456 ], [ 150.906991799999986, -33.6914595 ], [ 150.90699570000001, -33.6914738 ], [ 150.9069984, -33.6914884 ], [ 150.906999899999988, -33.6915032 ], [ 150.9070001, -33.691518 ], [ 150.9069991, -33.6915328 ], [ 150.9069968, -33.6915475 ], [ 150.906993300000011, -33.6915619 ], [ 150.9069886, -33.691576 ], [ 150.906982699999986, -33.6915896 ], [ 150.9069757, -33.6916027 ], [ 150.9069676, -33.6916151 ], [ 150.9069585, -33.6916268 ], [ 150.9069485, -33.6916378 ], [ 150.9069376, -33.6916478 ], [ 150.90692580000001, -33.6916569 ], [ 150.9063548, -33.6918339 ], [ 150.906293799999986, -33.6918739 ], [ 150.9061541, -33.6919166 ], [ 150.9060258, -33.6919556 ], [ 150.9044207, -33.692445 ], [ 150.904406099999989, -33.6924497 ], [ 150.9043912, -33.6924531 ], [ 150.904376, -33.6924554 ], [ 150.9043606, -33.6924563 ], [ 150.904345299999989, -33.692456 ], [ 150.90433, -33.6924545 ], [ 150.9043149, -33.6924516 ], [ 150.9043001, -33.6924476 ], [ 150.9042857, -33.6924423 ], [ 150.9042718, -33.6924358 ], [ 150.9042584, -33.6924283 ], [ 150.9042457, -33.6924196 ], [ 150.904233799999986, -33.6924099 ], [ 150.904222800000014, -33.6923993 ], [ 150.904068599999988, -33.6920224 ] ] ] } },
{ "type": "Feature", "properties": { "element": "way", "id": 679354513, "name": "Central" }, "geometry": { "type": "Polygon", "coordinates": [ [ [ 151.2052248, -33.8850523 ], [ 151.2056565, -33.8852932 ], [ 151.2057366, -33.8852173 ], [ 151.2058123, -33.8851281 ], [ 151.205895, -33.8850278 ], [ 151.2064514, -33.8853746 ], [ 151.2067687, -33.8855882 ], [ 151.206881900000013, -33.8854434 ], [ 151.2068952, -33.8854182 ], [ 151.2069134, -33.8853836 ], [ 151.2071836, -33.8849212 ], [ 151.2081492, -33.8836075 ], [ 151.2073949, -33.8832851 ], [ 151.207321799999988, -33.88338 ], [ 151.2072647, -33.8833494 ], [ 151.207148499999988, -33.8832872 ], [ 151.2071358, -33.8832804 ], [ 151.2070505, -33.8832348 ], [ 151.2069774, -33.8831964 ], [ 151.2070292, -33.8831293 ], [ 151.207042300000012, -33.8831124 ], [ 151.2070587, -33.8830911 ], [ 151.207073, -33.8830726 ], [ 151.2070781, -33.883066 ], [ 151.2070961, -33.8830427 ], [ 151.2071065, -33.883029 ], [ 151.2071722, -33.8829432 ], [ 151.2072556, -33.8828343 ], [ 151.207261100000011, -33.8828249 ], [ 151.207262500000013, -33.8828151 ], [ 151.207259599999986, -33.8828011 ], [ 151.2072473, -33.8827889 ], [ 151.207214099999987, -33.8827706 ], [ 151.2071081, -33.8827122 ], [ 151.2070795, -33.8826964 ], [ 151.207056200000011, -33.8826836 ], [ 151.207035100000013, -33.882672 ], [ 151.206572099999988, -33.8824194 ], [ 151.2065499, -33.8824073 ], [ 151.2065287, -33.8823959 ], [ 151.2063369, -33.8822917 ], [ 151.206264, -33.882252 ], [ 151.2061526, -33.8821902 ], [ 151.2061479, -33.8821842 ], [ 151.2061425, -33.8821787 ], [ 151.206133599999987, -33.8821745 ], [ 151.20611980000001, -33.8821731 ], [ 151.2061089, -33.8821754 ], [ 151.2060989, -33.8821804 ], [ 151.2060917, -33.8821872 ], [ 151.206089100000014, -33.8821948 ], [ 151.206004799999988, -33.8823008 ], [ 151.205950800000011, -33.8822725 ], [ 151.2058993, -33.8823402 ], [ 151.205895, -33.8823699 ], [ 151.2058702, -33.8824014 ], [ 151.205847799999987, -33.8824282 ], [ 151.2057747, -33.8825223 ], [ 151.2056011, -33.8827156 ], [ 151.2055897, -33.8827406 ], [ 151.2055901, -33.8827606 ], [ 151.2055948, -33.882775 ], [ 151.2056135, -33.8827909 ], [ 151.2053857, -33.8830796 ], [ 151.205274, -33.8832211 ], [ 151.20514750000001, -33.8833813 ], [ 151.2049632, -33.8836165 ], [ 151.2049264, -33.8836666 ], [ 151.2050066, -33.8837106 ], [ 151.2049189, -33.8838232 ], [ 151.2049379, -33.8838337 ], [ 151.204669700000011, -33.8841822 ], [ 151.204613599999988, -33.8841478 ], [ 151.2046034, -33.8841583 ], [ 151.2045857, -33.8841493 ], [ 151.204198, -33.8847546 ], [ 151.2041184, -33.8848811 ], [ 151.2040165, -33.8850437 ], [ 151.2039794, -33.8851029 ], [ 151.2037925, -33.885439 ], [ 151.2040173, -33.8855191 ], [ 151.2047652, -33.8847188 ], [ 151.2052248, -33.8850523 ] ] ] } },
{ "type": "Feature", "properties": { "element": "way", "id": 739793099, "name": "Chinatown" }, "geometry": { "type": "Polygon", "coordinates": [ [ [ 151.20556830000001, -33.878233 ], [ 151.205682, -33.8782466 ], [ 151.2055522, -33.8789944 ], [ 151.205438500000014, -33.8789808 ], [ 151.20556830000001, -33.878233 ] ] ] } },
{ "type": "Feature", "properties": { "element": "way", "id": 739794651, "name": "Haymarket" }, "geometry": { "type": "Polygon", "coordinates": [ [ [ 151.204958800000014, -33.8813246 ], [ 151.2050568, -33.8812013 ], [ 151.2057697, -33.8815917 ], [ 151.2056364, -33.8816955 ], [ 151.204958800000014, -33.8813246 ] ] ] } },
{ "type": "Feature", "properties": { "element": "way", "id": 739799799, "name": "Moore Park" }, "geometry": { "type": "Polygon", "coordinates": [ [ [ 151.221771, -33.894174 ], [ 151.2217954, -33.8941716 ], [ 151.221910900000012, -33.8941577 ], [ 151.2219292, -33.8941555 ], [ 151.2220055, -33.8941464 ], [ 151.2220298, -33.8941435 ], [ 151.221845800000011, -33.8930857 ], [ 151.22171, -33.893102 ], [ 151.2216468, -33.8931095 ], [ 151.221591600000011, -33.893115 ], [ 151.221771, -33.894174 ] ] ] } },
{ "type": "Feature", "properties": { "element": "way", "id": 739801575, "name": "Randwick" }, "geometry": { "type": "Polygon", "coordinates": [ [ [ 151.2401649, -33.9170295 ], [ 151.240146900000013, -33.9171172 ], [ 151.2409317, -33.9172276 ], [ 151.2409496, -33.9171398 ], [ 151.2401649, -33.9170295 ] ] ] } },
{ "type": "Feature", "properties": { "element": "way", "id": 740047982, "name": "Surry Hills" }, "geometry": { "type": "Polygon", "coordinates": [ [ [ 151.211518, -33.8879948 ], [ 151.21158650000001, -33.8878964 ], [ 151.212225499999988, -33.8882027 ], [ 151.212157100000013, -33.8883011 ], [ 151.211518, -33.8879948 ] ] ] } },
{ "type": "Feature", "properties": { "element": "way", "id": 740047983, "name": "Royal Randwick" }, "geometry": { "type": "Polygon", "coordinates": [ [ [ 151.228512599999988, -33.9049813 ], [ 151.2292511, -33.9052733 ], [ 151.229302499999989, -33.9052943 ], [ 151.2292833, -33.9053278 ], [ 151.229264300000011, -33.9053607 ], [ 151.229249900000013, -33.9053858 ], [ 151.2292023, -33.9053684 ], [ 151.2284553, -33.90508 ], [ 151.22839780000001, -33.905058 ], [ 151.2284564, -33.9049579 ], [ 151.2284698, -33.9049635 ], [ 151.228512599999988, -33.9049813 ] ] ] } },
{ "type": "Feature", "properties": { "element": "way", "id": 740047984, "name": "Wansey Road" }, "geometry": { "type": "Polygon", "coordinates": [ [ [ 151.234879299999989, -33.9102381 ], [ 151.2354018, -33.9108329 ], [ 151.2355115, -33.9107665 ], [ 151.2349891, -33.9101717 ], [ 151.234879299999989, -33.9102381 ] ] ] } },
{ "type": "Feature", "properties": { "element": "way", "id": 740047985, "name": "UNSW High Street" }, "geometry": { "type": "Polygon", "coordinates": [ [ [ 151.2351342, -33.9163914 ], [ 151.2351638, -33.9162552 ], [ 151.2359425, -33.916372 ], [ 151.2359128, -33.9165082 ], [ 151.2351342, -33.9163914 ] ] ] } },
{ "type": "Feature", "properties": { "element": "way", "id": 740048069, "name": "Circular Quay" }, "geometry": { "type": "Polygon", "coordinates": [ [ [ 151.2095842, -33.8615301 ], [ 151.2096071, -33.8615316 ], [ 151.2096062, -33.8615386 ], [ 151.209604500000012, -33.8615512 ], [ 151.2100651, -33.8615931 ], [ 151.2104689, -33.8616307 ], [ 151.2104707, -33.861617 ], [ 151.2104723, -33.861607 ], [ 151.2105023, -33.8616097 ], [ 151.210511, -33.8615433 ], [ 151.210480600000011, -33.8615406 ], [ 151.2104827, -33.8615223 ], [ 151.210484400000013, -33.8615098 ], [ 151.2105151, -33.8615127 ], [ 151.2105201, -33.8614773 ], [ 151.210450900000012, -33.8614707 ], [ 151.20960070000001, -33.8613911 ], [ 151.209597, -33.8614226 ], [ 151.2095946, -33.8614422 ], [ 151.2095894, -33.861486 ], [ 151.2095856, -33.8615184 ], [ 151.2095842, -33.8615301 ] ] ] } },
{ "type": "Feature", "properties": { "element": "way", "id": 740048665, "name": "Town Hall" }, "geometry": { "type": "Polygon", "coordinates": [ [ [ 151.2068528, -33.8735296 ], [ 151.2070262, -33.8735466 ], [ 151.2069354, -33.8741854 ], [ 151.2067619, -33.8741684 ], [ 151.2068528, -33.8735296 ] ] ] } },
{ "type": "Feature", "properties": { "element": "way", "id": 740048666, "name": "QVB" }, "geometry": { "type": "Polygon", "coordinates": [ [ [ 151.2068865, -33.8718921 ], [ 151.2070692, -33.8718881 ], [ 151.2070486, -33.8712481 ], [ 151.2068659, -33.8712522 ], [ 151.2068865, -33.8718921 ] ] ] } },
{ "type": "Feature", "properties": { "element": "way", "id": 740048667, "name": "Wynyard" }, "geometry": { "type": "Polygon", "coordinates": [ [ [ 151.2070584, -33.8669796 ], [ 151.207224200000013, -33.866992 ], [ 151.2072934, -33.8663549 ], [ 151.2071276, -33.8663425 ], [ 151.2070584, -33.8669796 ] ] ] } },
{ "type": "Feature", "properties": { "element": "way", "id": 740048668, "name": "Bridge Street" }, "geometry": { "type": "Polygon", "coordinates": [ [ [ 151.2074326, -33.8637887 ], [ 151.2075423, -33.8637956 ], [ 151.2074809, -33.8644632 ], [ 151.207371200000011, -33.8644563 ], [ 151.2074326, -33.8637887 ] ] ] } },
{ "type": "Feature", "properties": { "element": "way", "id": 740050932, "name": "Central Chalmers Street" }, "geometry": { "type": "Polygon", "coordinates": [ [ [ 151.2075427, -33.8845216 ], [ 151.2073766, -33.8844334 ], [ 151.207782400000013, -33.8839064 ], [ 151.207948499999986, -33.8839946 ], [ 151.2075427, -33.8845216 ] ] ] } },
{ "type": "Feature", "properties": { "element": "way", "id": 822287352, "name": "ES Marks" }, "geometry": { "type": "Polygon", "coordinates": [ [ [ 151.2239798, -33.9050449 ], [ 151.224102499999987, -33.9050537 ], [ 151.223920600000014, -33.906207 ], [ 151.2238127, -33.9061982 ], [ 151.2239596, -33.9051878 ], [ 151.2239798, -33.9050449 ] ] ] } },
{ "type": "Feature", "properties": { "element": "way", "id": 822292588, "name": "UNSW Anzac Parade" }, "geometry": { "type": "Polygon", "coordinates": [ [ [ 151.2256719, -33.9159516 ], [ 151.2257937, -33.9159382 ], [ 151.225804, -33.9159823 ], [ 151.2261373, -33.9173982 ], [ 151.2260154, -33.917413 ], [ 151.225704900000011, -33.9160923 ], [ 151.2256719, -33.9159516 ] ] ] } },
{ "type": "Feature", "properties": { "element": "way", "id": 822364731, "name": "Kensington" }, "geometry": { "type": "Polygon", "coordinates": [ [ [ 151.223353800000012, -33.9089315 ], [ 151.2234838, -33.9089448 ], [ 151.2233779, -33.909893 ], [ 151.2232098, -33.9098731 ], [ 151.223353800000012, -33.9089315 ] ] ] } },
{ "type": "Feature", "properties": { "element": "way", "id": 822368372, "name": "Kingsford" }, "geometry": { "type": "Polygon", "coordinates": [ [ [ 151.226738399999988, -33.9213836 ], [ 151.2268669, -33.9213735 ], [ 151.2270004, -33.9221828 ], [ 151.2268718, -33.9221989 ], [ 151.2267425, -33.9214085 ], [ 151.226738399999988, -33.9213836 ] ] ] } },
{ "type": "Feature", "properties": { "element": "way", "id": 1001065439, "name": "Killara" }, "geometry": { "type": "Polygon", "coordinates": [ [ [ 151.161851899999988, -33.7656298 ], [ 151.1617714, -33.7656714 ], [ 151.1617276, -33.765613 ], [ 151.1617183, -33.7656006 ], [ 151.1617108, -33.7656044 ], [ 151.1615625, -33.7654066 ], [ 151.161568, -33.7654038 ], [ 151.161529, -33.7653518 ], [ 151.1616119, -33.7653089 ], [ 151.16164950000001, -33.7653592 ], [ 151.1616551, -33.7653563 ], [ 151.1618038, -33.7655548 ], [ 151.16179790000001, -33.7655578 ], [ 151.1618099, -33.7655738 ], [ 151.161851899999988, -33.7656298 ] ] ] } },
{ "type": "Feature", "properties": { "element": "way", "id": 1115995149, "name": "St James" }, "geometry": { "type": "Polygon", "coordinates": [ [ [ 151.2117275, -33.8700859 ], [ 151.2121444, -33.8701275 ], [ 151.2120989, -33.8704424 ], [ 151.2121147, -33.8704441 ], [ 151.2120627, -33.8707934 ], [ 151.212047899999988, -33.8707921 ], [ 151.2119151, -33.8717134 ], [ 151.2114986, -33.8716719 ], [ 151.211627099999987, -33.8707795 ], [ 151.2114956, -33.8707776 ], [ 151.2114962, -33.8707462 ], [ 151.2115852, -33.8707481 ], [ 151.211634, -33.8704095 ], [ 151.2116009, -33.870321 ], [ 151.2116689, -33.8703034 ], [ 151.2116878, -33.8703548 ], [ 151.2117275, -33.8700859 ] ] ] } },
{ "type": "Feature", "properties": { "element": "way", "id": 1234780895, "name": "Glebe" }, "geometry": { "type": "Polygon", "coordinates": [ [ [ 151.187574899999987, -33.8771695 ], [ 151.1874944, -33.8771767 ], [ 151.1874077, -33.8771809 ], [ 151.187332, -33.8771821 ], [ 151.187257499999987, -33.8771796 ], [ 151.1872495, -33.8772448 ], [ 151.187319300000013, -33.877246 ], [ 151.1874113, -33.877245 ], [ 151.187499, -33.8772409 ], [ 151.1875747, -33.8772353 ], [ 151.1875851, -33.8772347 ], [ 151.187582600000013, -33.8772173 ], [ 151.1875772, -33.8771809 ], [ 151.187574899999987, -33.8771695 ] ] ] } },
{ "type": "Feature", "properties": { "element": "way", "id": 1238600925, "name": "Westmead" }, "geometry": { "type": "Polygon", "coordinates": [ [ [ 150.9874278, -33.8077545 ], [ 150.987536, -33.8077998 ], [ 150.9875721, -33.8077433 ], [ 150.987567, -33.807741 ], [ 150.987743099999989, -33.8074647 ], [ 150.9878348, -33.8073216 ], [ 150.9879253, -33.8071888 ], [ 150.9878508, -33.8071562 ], [ 150.9878003, -33.807211 ], [ 150.9877693, -33.8072196 ], [ 150.987720599999989, -33.8072732 ], [ 150.9876257, -33.8074262 ], [ 150.9874278, -33.8077545 ] ] ] } },
{ "type": "Feature", "properties": { "element": "way", "id": 1255910313, "name": "Crows Nest" }, "geometry": { "type": "Polygon", "coordinates": [ [ [ 151.1984955, -33.825099 ], [ 151.1987136, -33.8249616 ], [ 151.199354699999986, -33.8256641 ], [ 151.1997395, -33.8254217 ], [ 151.199882699999989, -33.8255786 ], [ 151.1995049, -33.8258166 ], [ 151.200013, -33.8263734 ], [ 151.1997883, -33.826515 ], [ 151.1984955, -33.825099 ] ] ] } },
{ "type": "Feature", "properties": { "element": "way", "id": 1255912088, "name": "Victoria Cross" }, "geometry": { "type": "Polygon", "coordinates": [ [ [ 151.2075769, -33.8352189 ], [ 151.207844099999988, -33.8352551 ], [ 151.2081043, -33.8351182 ], [ 151.2081722, -33.8348044 ], [ 151.207842199999988, -33.8347582 ], [ 151.2078846, -33.8345651 ], [ 151.2082882, -33.834626 ], [ 151.208179699999988, -33.8351553 ], [ 151.2077151, -33.835414 ], [ 151.207645, -33.835726 ], [ 151.2075116, -33.8363632 ], [ 151.2076659, -33.8365163 ], [ 151.207778, -33.8370271 ], [ 151.2076662, -33.8375531 ], [ 151.2079628, -33.8375899 ], [ 151.2079017, -33.8378805 ], [ 151.2073063, -33.8377943 ], [ 151.2074809, -33.8369509 ], [ 151.2072123, -33.8369149 ], [ 151.207280700000013, -33.8366002 ], [ 151.2075769, -33.8352189 ] ] ] } },
{ "type": "Feature", "properties": { "element": "way", "id": 1261363035, "name": "Barangaroo" }, "geometry": { "type": "Polygon", "coordinates": [ [ [ 151.2024256, -33.8591431 ], [ 151.2024457, -33.859424 ], [ 151.2025188, -33.8594226 ], [ 151.2024897, -33.8589072 ], [ 151.202679499999988, -33.8588992 ], [ 151.2027736, -33.8604424 ], [ 151.2025256, -33.8604529 ], [ 151.2024792, -33.8596929 ], [ 151.2023457, -33.8596985 ], [ 151.202312, -33.8591495 ], [ 151.2024256, -33.8591431 ] ] ] } },
{ "type": "Feature", "properties": { "element": "way", "id": 1261363862, "name": "Martin Place" }, "geometry": { "type": "Polygon", "coordinates": [ [ [ 151.2105559, -33.868047 ], [ 151.2103583, -33.8680297 ], [ 151.2103373, -33.8681945 ], [ 151.2099279, -33.8681586 ], [ 151.209949099999989, -33.8679917 ], [ 151.20974910000001, -33.8679742 ], [ 151.209945800000014, -33.8664268 ], [ 151.2101446, -33.8664442 ], [ 151.2101506, -33.8663969 ], [ 151.2105206, -33.8664294 ], [ 151.2105149, -33.866474 ], [ 151.210753899999986, -33.866495 ], [ 151.210581499999989, -33.8678315 ], [ 151.2105559, -33.868047 ] ] ] } },
{ "type": "Feature", "properties": { "element": "way", "id": 1261364180, "name": "Gadigal" }, "geometry": { "type": "Polygon", "coordinates": [ [ [ 151.208466, -33.8730999 ], [ 151.20849290000001, -33.8728259 ], [ 151.20865950000001, -33.8728372 ], [ 151.2086745, -33.872685 ], [ 151.2089607, -33.8727044 ], [ 151.208922199999989, -33.8730969 ], [ 151.209315, -33.8731235 ], [ 151.2091561, -33.8747445 ], [ 151.208460800000012, -33.8746975 ], [ 151.2084307, -33.8750045 ], [ 151.20824540000001, -33.8749919 ], [ 151.208277900000013, -33.8746613 ], [ 151.2079443, -33.8746387 ], [ 151.208098299999989, -33.873075 ], [ 151.208466, -33.8730999 ] ] ] } },
{ "type": "Feature", "properties": { "element": "way", "id": 1261365612, "name": "Waterloo" }, "geometry": { "type": "Polygon", "coordinates": [ [ [ 151.1999453, -33.8969025 ], [ 151.2001653, -33.8968916 ], [ 151.2007032, -33.8984943 ], [ 151.20049370000001, -33.8985373 ], [ 151.1999453, -33.8969025 ] ] ] } },
{ "type": "Feature", "properties": { "element": "way", "id": 1435822999, "name": "Cowan" }, "geometry": { "type": "Polygon", "coordinates": [ [ [ 151.1716557, -33.5925009 ], [ 151.171681400000011, -33.5929504 ], [ 151.1714867, -33.5929572 ], [ 151.1714887, -33.5929894 ], [ 151.171649, -33.5929867 ], [ 151.171661300000011, -33.5933276 ], [ 151.171663200000012, -33.593399 ], [ 151.1715069, -33.5934043 ], [ 151.171519600000011, -33.5937119 ], [ 151.1716226, -33.5937077 ], [ 151.171622500000012, -33.5937324 ], [ 151.1717157, -33.5937295 ], [ 151.1718462, -33.5937244 ], [ 151.171885800000013, -33.5937229 ], [ 151.171878600000014, -33.5933882 ], [ 151.1718431, -33.5933895 ], [ 151.171842, -33.5933117 ], [ 151.1718678, -33.5933108 ], [ 151.17186670000001, -33.5932792 ], [ 151.1718395, -33.5932809 ], [ 151.1718237, -33.5927615 ], [ 151.1718109, -33.5924974 ], [ 151.1716557, -33.5925009 ] ] ] } }
]
}
