{"version": 0.6, "generator": "Overpass API 0.7.62.11 87bfad18", "osm3s": {"timestamp_osm_base": "2026-05-17T03:13:52Z", "copyright": "The data included in this document is from www.openstreetmap.org. The data is made available under ODbL."}, "elements": [{"type": "node", "id": 20964793, "lat": -33.7235406, "lon": 150.4147355, "tags": {"fare_gates": "no", "name": "Bullaburra", "name:zh": "\u5df4\u62c9\u5df4\u62c9", "network": "NSW TrainLink", "network:wikidata": "Q6955406", "platforms": "2", "public_transport": "station", "railway": "station", "railway:ref": "BLB", "ref": "278410", "train": "yes", "wheelchair": "no", "wikidata": "Q4996662"}}, {"type": "node", "id": 20964794, "lat": -33.7190214, "lon": 150.4299669, "tags": {"fare_gates": "no", "name": "Lawson", "network": "NSW TrainLink", "network:wikidata": "Q6955406", "old_name": "Blue Mountain", "platforms": "2", "public_transport": "station", "railway": "station", "railway:ref": "LAW", "ref": "278310", "train": "yes", "wheelchair": "no", "wikidata": "Q14934872"}}, {"type": "node", "id": 20964798, "lat": -33.6964307, "lon": 150.5350695, "tags": {"fare_gates": "no", "name": "Faulconbridge", "network": "NSW TrainLink", "network:wikidata": "Q6955406", "platforms": "2", "public_transport": "station", "railway": "station", "railway:ref": "FBG", "ref": "277610", "train": "yes", "wheelchair": "yes", "wikidata": "Q5438097"}}, {"type": "node", "id": 330756027, "lat": -33.6735559, "lon": 150.2806632, "tags": {"fare_gates": "no", "name": "Medlow Bath", "network": "NSW TrainLink", "network:wikidata": "Q6955406", "operator:wikimedia_commons": "en:Category:NSW TrainLink", "phone": "+61 2 4782 1902", "platforms": "2", "public_transport": "station", "railway": "station", "railway:ref": "MED", "ref": "278030", "train": "yes", "website": "https://transportnsw.info/stop?q=278030#/", "wheelchair": "no", "wikidata": "Q6807239", "wikipedia": "en:Medlow Bath railway station"}}, {"type": "node", "id": 1886240872, "lat": -33.7118546, "lon": 150.3112294, "tags": {"fare_gates": "no", "name": "Katoomba", "network": "NSW TrainLink", "network:wikidata": "Q6955406", "platforms": "2", "public_transport": "station", "railway": "station", "railway:ref": "KAT", "ref": "278020", "train": "yes", "wheelchair": "yes", "wikidata": "Q6377796"}}, {"type": "node", "id": 1886255289, "lat": -33.7436266, "lon": 150.6096243, "tags": {"fare_gates": "no", "name": "Blaxland", "network": "NSW TrainLink", "network:wikidata": "Q6955406", "old_name": "Wascoe's", "platforms": "2", "public_transport": "station", "railway": "station", "railway:ref": "BXD", "ref": "277410", "train": "yes", "wheelchair": "yes", "wikidata": "Q4925565", "wikipedia": "en:Blaxland railway station"}}, {"type": "node", "id": 1886255298, "lat": -33.7239715, "lon": 150.4544865, "tags": {"fare_gates": "no", "name": "Hazelbrook", "network": "NSW TrainLink", "network:wikidata": "Q6955406", "platforms": "2", "public_transport": "station", "railway": "station", "railway:ref": "HZL", "ref": "277910", "train": "yes", "wheelchair": "yes", "wikidata": "Q5688042"}}, {"type": "node", "id": 1886255305, "lat": -33.7119015, "lon": 150.3304967, "tags": {"check_date": "2023-07-17", "fare_gates": "no", "name": "Leura", "network": "NSW TrainLink", "network:wikidata": "Q6955406", "platforms": "2", "public_transport": "station", "railway": "station", "railway:ref": "LRA", "ref": "278010", "train": "yes", "wheelchair": "yes", "wikidata": "Q6534609"}}, {"type": "node", "id": 1886255306, "lat": -33.7149196, "lon": 150.5054626, "tags": {"fare_gates": "no", "name": "Linden", "network": "NSW TrainLink", "network:wikidata": "Q6955406", "old_name": "Henderson's platform", "platforms": "2", "public_transport": "station", "railway": "station", "railway:ref": "LIN", "ref": "277820", "train": "yes", "wheelchair": "no", "wikidata": "Q6552367"}}, {"type": "node", "id": 1886255328, "lat": -33.7044936, "lon": 150.5838711, "tags": {"fare_gates": "no", "name": "Valley Heights", "network": "NSW TrainLink", "network:wikidata": "Q6955406", "platforms": "2", "public_transport": "station", "railway": "station", "railway:ref": "VHT", "ref": "277710", "train": "yes", "wheelchair": "no", "wikidata": "Q7912086"}}, {"type": "node", "id": 1886255330, "lat": -33.7212855, "lon": 150.6023458, "tags": {"fare_gates": "no", "name": "Warrimoo", "network": "NSW TrainLink", "network:wikidata": "Q6955406", "platforms": "2", "public_transport": "station", "railway": "station", "railway:ref": "WRM", "ref": "277420", "train": "yes", "wheelchair": "no", "wikidata": "Q7970700"}}, {"type": "node", "id": 1886255333, "lat": -33.7354736, "lon": 150.4821925, "tags": {"fare_gates": "no", "name": "Woodford", "network": "NSW TrainLink", "network:wikidata": "Q6955406", "old_name": "Buss's platform", "platforms": "2", "public_transport": "station", "railway": "station", "railway:ref": "WDF", "ref": "277810", "train": "yes", "website": "https://www.nswrail.net/locations/show.php?name=NSW:Woodford", "wheelchair": "no", "wikidata": "Q8032672"}}, {"type": "node", "id": 2393270560, "lat": -33.6987482, "lon": 150.5639732, "tags": {"fare_gates": "no", "name": "Springwood", "network": "NSW TrainLink", "network:wikidata": "Q6955406", "platforms": "2", "public_transport": "station", "railway": "station", "railway:ref": "SPW", "ref": "277720", "source": "survey", "train": "yes", "wheelchair": "yes", "wikidata": "Q7581283"}}, {"type": "node", "id": 2393270562, "lat": -33.70988, "lon": 150.3764087, "tags": {"fare_gates": "no", "name": "Wentworth Falls", "network": "NSW TrainLink", "network:wikidata": "Q6955406", "old_name": "Weatherboard", "platforms": "2", "public_transport": "station", "railway": "station", "railway:ref": "WFS", "ref": "278210", "train": "yes", "wheelchair": "yes", "wikidata": "Q7983019"}}, {"type": "node", "id": 2712083828, "lat": -33.7311232, "lon": 150.3018148, "tags": {"aerialway:access": "both", "name": "Scenic Railway Valley Station", "public_transport": "station", "railway": "station"}}, {"type": "node", "id": 2712085211, "lat": -33.7289792, "lon": 150.3013847, "tags": {"aerialway:access": "both", "name": "Scenic Railway Top Station", "public_transport": "station", "railway": "station"}}]}