{"version": 0.6, "generator": "Overpass API 0.7.62.11 87bfad18", "osm3s": {"timestamp_osm_base": "2026-05-17T03:12:57Z", "copyright": "The data included in this document is from www.openstreetmap.org. The data is made available under ODbL."}, "elements": [{"type": "node", "id": 19140831, "lat": -33.7715179, "lon": 150.8450104, "tags": {"fare_gates": "no", "name": "Rooty Hill", "network": "Sydney Trains", "network:wikidata": "Q7660181", "operator": "Sydney Trains", "platforms": "4", "public_transport": "station", "railway": "station", "railway:ref": "RTY", "ref": "276610", "train": "yes", "wheelchair": "yes", "wikidata": "Q7366680"}}, {"type": "node", "id": 26774097, "lat": -33.8950021, "lon": 150.9388097, "tags": {"fare_gates": "no", "name": "Cabramatta", "network": "Sydney Trains", "network:wikidata": "Q7660181", "operator": "Sydney Trains", "platforms": "2", "public_transport": "station", "railway": "station", "ref": "216620", "train": "yes", "wheelchair": "yes", "wikidata": "Q5015812"}}, {"type": "node", "id": 448630512, "lat": -33.8724177, "lon": 150.9570025, "tags": {"fare_gates": "no", "name": "Fairfield", "network": "Sydney Trains", "network:wikidata": "Q7660181", "operator": "Sydney Trains", "platforms": "2", "public_transport": "station", "railway": "station", "ref": "216510", "train": "yes", "wheelchair": "yes", "wikidata": "Q5430413"}}, {"type": "node", "id": 633285161, "lat": -33.8071839, "lon": 150.9726612, "tags": {"fare_gates": "no", "name": "Wentworthville", "network": "Sydney Trains", "network:wikidata": "Q7660181", "operator": "Sydney Trains", "platforms": "4", "public_transport": "station", "railway": "station", "ref": "214520", "train": "yes", "wheelchair": "yes", "wikidata": "Q7983052", "wikipedia": "en:Wentworthville railway station"}}, {"type": "node", "id": 634102924, "lat": -34.1252956, "lon": 150.7443838, "tags": {"fare_gates": "no", "name": "Menangle", "network": "NSW TrainLink", "network:wikidata": "Q6955406", "platforms": "2", "public_transport": "station", "railway": "station", "railway:ref": "MGL", "ref": "256810", "train": "yes", "wheelchair": "no", "wikidata": "Q14934897", "wikipedia": "en:Menangle railway station"}}, {"type": "node", "id": 792201303, "lat": -34.103653, "lon": 150.7449641, "tags": {"fare_gates": "no", "name": "Menangle Park", "network": "NSW TrainLink", "network:wikidata": "Q6955406", "platforms": "2", "public_transport": "station", "railway": "station", "railway:ref": "MGP", "ref": "256310", "train": "yes", "wheelchair": "no", "wikidata": "Q6816450", "wikipedia": "en:Menangle Park railway station"}}, {"type": "node", "id": 1886255290, "lat": -34.0636278, "lon": 150.8143901, "tags": {"fare_gates": "no", "name": "Campbelltown", "network": "Sydney Trains", "network:wikidata": "Q7660181", "platforms": "4", "public_transport": "station", "railway": "station", "railway:ref": "CTN", "ref": "256020", "train": "yes", "wheelchair": "yes", "wikidata": "Q5028228"}}, {"type": "node", "id": 1886255296, "lat": -33.7690298, "lon": 150.6207349, "tags": {"fare_gates": "no", "name": "Glenbrook", "network": "NSW TrainLink", "network:wikidata": "Q6955406", "platforms": "2", "public_transport": "station", "railway": "station", "railway:ref": "GBK", "ref": "277310", "train": "yes", "wheelchair": "yes", "wikidata": "Q5568209"}}, {"type": "node", "id": 1886255299, "lat": -33.9632164, "lon": 150.9564652, "tags": {"fare_gates": "no", "name": "Holsworthy", "network": "Sydney Trains", "network:wikidata": "Q7660181", "operator": "Sydney Trains", "platforms": "2", "public_transport": "station", "railway": "station", "ref": "217310", "source": "bing", "train": "yes", "wheelchair": "yes", "wikidata": "Q5884489", "wikipedia": "en:Holsworthy railway station, Sydney"}}, {"type": "node", "id": 1886255300, "lat": -33.9971947, "lon": 150.864903, "tags": {"fare_gates": "no", "name": "Ingleburn", "network": "Sydney Trains", "network:wikidata": "Q7660181", "platforms": "2", "public_transport": "station", "railway": "station", "ref": "256510", "train": "yes", "wheelchair": "yes", "wikidata": "Q6032562"}}, {"type": "node", "id": 1886255303, "lat": -33.7737699, "lon": 150.6427335, "tags": {"fare_gates": "no", "name": "Lapstone", "network": "Sydney Trains", "network:wikidata": "Q7660181", "platforms": "2", "public_transport": "station", "railway": "station", "railway:ref": "LAP", "ref": "275030", "train": "yes", "wheelchair": "yes", "wikidata": "Q14934870"}}, {"type": "node", "id": 1886255304, "lat": -34.0507604, "lon": 150.8305071, "tags": {"fare_gates": "no", "name": "Leumeah", "network": "Sydney Trains", "network:wikidata": "Q7660181", "platforms": "2", "public_transport": "station", "railway": "station", "railway:ref": "LEU", "ref": "256010", "train": "yes", "wheelchair": "yes", "wikidata": "Q13219799"}}, {"type": "node", "id": 1886255308, "lat": -34.0719861, "lon": 150.7971899, "tags": {"fare_gates": "no", "name": "Macarthur", "network": "Sydney Trains", "network:wikidata": "Q7660181", "platforms": "3", "public_transport": "station", "railway": "station", "railway:ref": "MCA", "ref": "256030", "train": "yes", "wheelchair": "yes", "wikidata": "Q6722672"}}, {"type": "node", "id": 1886255311, "lat": -34.0272394, "lon": 150.8425751, "tags": {"fare_gates": "no", "name": "Minto", "network": "Sydney Trains", "network:wikidata": "Q7660181", "platforms": "2", "public_transport": "station", "railway": "station", "ref": "256610", "train": "yes", "wheelchair": "yes", "wikidata": "Q6869674"}}, {"type": "node", "id": 1886255312, "lat": -33.7695821, "lon": 150.8201965, "tags": {"fare_gates": "yes", "name": "Mount Druitt", "network": "Sydney Trains", "network:wikidata": "Q7660181", "operator": "Sydney Trains", "platforms": "4", "public_transport": "station", "railway": "station", "railway:ref": "MTD", "ref": "277010", "source": "bing", "train": "yes", "wheelchair": "yes", "wikidata": "Q12062110"}}, {"type": "node", "id": 1886255318, "lat": -33.8015021, "lon": 150.9564483, "tags": {"fare_gates": "no", "name": "Pendle Hill", "network": "Sydney Trains", "network:wikidata": "Q7660181", "operator": "Sydney Trains", "platforms": "4", "public_transport": "station", "railway": "station", "ref": "214530", "source": "bing", "train": "yes", "wheelchair": "yes", "wikidata": "Q7162442", "wikipedia": "en:Pendle Hill railway station"}}, {"type": "node", "id": 1886255326, "lat": -33.7874687, "lon": 150.9514631, "tags": {"fare_gates": "no", "name": "Toongabbie", "network": "Sydney Trains", "network:wikidata": "Q7660181", "operator": "Sydney Trains", "platforms": "4", "public_transport": "station", "railway": "station", "ref": "214610", "source": "bing", "train": "yes", "wheelchair": "yes", "wikidata": "Q7824178", "wikipedia": "en:Toongabbie railway station"}}, {"type": "node", "id": 1886265353, "lat": -33.8872029, "lon": 150.9436605, "tags": {"fare_gates": "no", "name": "Canley Vale", "network": "Sydney Trains", "network:wikidata": "Q7660181", "operator": "Sydney Trains", "platforms": "2", "public_transport": "station", "railway": "station", "ref": "216610", "source": "bing", "train": "yes", "wheelchair": "no", "wikidata": "Q5032518"}}, {"type": "node", "id": 1886265354, "lat": -33.8843192, "lon": 150.9615133, "tags": {"fare_gates": "no", "name": "Carramar", "network": "Sydney Trains", "network:wikidata": "Q7660181", "operator": "Sydney Trains", "platforms": "2", "public_transport": "station", "railway": "station", "ref": "216330", "source": "bing", "train": "yes", "wheelchair": "no", "wikidata": "Q5046008"}}, {"type": "node", "id": 1886265357, "lat": -33.9722422, "lon": 150.8930882, "tags": {"fare_gates": "no", "name": "Glenfield", "network": "Sydney Trains", "network:wikidata": "Q7660181", "platforms": "3", "public_transport": "station", "railway": "station", "ref": "216710", "train": "yes", "wheelchair": "yes", "wikidata": "Q5568515"}}, {"type": "node", "id": 1886265363, "lat": -33.9847895, "lon": 150.8789007, "tags": {"fare_gates": "no", "name": "Macquarie Fields", "network": "Sydney Trains", "network:wikidata": "Q7660181", "platforms": "2", "public_transport": "station", "railway": "station", "ref": "256410", "train": "yes", "wheelchair": "no", "wikidata": "Q6724967"}}, {"type": "node", "id": 1886265375, "lat": -33.9133304, "lon": 150.9351023, "tags": {"fare_gates": "no", "name": "Warwick Farm", "network": "Sydney Trains", "network:wikidata": "Q7660181", "operator": "Sydney Trains", "platforms": "2", "public_transport": "station", "railway": "station", "ref": "217010", "source": "bing", "train": "yes", "wheelchair": "yes", "wikidata": "Q7971134"}}, {"type": "node", "id": 1886265380, "lat": -33.8646287, "lon": 150.9711499, "tags": {"fare_gates": "no", "name": "Yennora", "network": "Sydney Trains", "network:wikidata": "Q7660181", "operator": "Sydney Trains", "platforms": "2", "public_transport": "station", "railway": "station", "railway:ref": "VIN", "ref": "216120", "source": "bing", "train": "yes", "wheelchair": "no", "wikidata": "Q13219898"}}, {"type": "node", "id": 3233767807, "lat": -33.9540296, "lon": 150.8072185}, {"type": "node", "id": 3233767808, "lat": -33.9544399, "lon": 150.8071116}, {"type": "node", "id": 3233767809, "lat": -33.9547566, "lon": 150.8089105}, {"type": "node", "id": 3233767810, "lat": -33.9543315, "lon": 150.8090152}, {"type": "node", "id": 3337544919, "lat": -33.9692716, "lon": 150.858626, "tags": {"fare_gates": "no", "name": "Edmondson Park", "network": "Sydney Trains", "network:wikidata": "Q7660181", "platforms": "2", "public_transport": "station", "railway": "station", "ref": "217426", "train": "yes", "wheelchair": "yes", "wikidata": "Q5338965", "wikipedia": "en:Edmondson Park railway station"}}, {"type": "node", "id": 4688058740, "lat": -33.9501572, "lon": 150.9118445, "tags": {"fare_gates": "no", "name": "Casula", "network": "Sydney Trains", "network:wikidata": "Q7660181", "operator": "Sydney Trains", "platforms": "2", "public_transport": "station", "railway": "station", "ref": "217030", "train": "yes", "wheelchair": "yes", "wikidata": "Q5050940"}}, {"type": "node", "id": 5253376705, "lat": -33.7743672, "lon": 150.9362605, "tags": {"fare_gates": "no", "name": "Seven Hills", "network": "Sydney Trains", "network:wikidata": "Q7660181", "operator": "Sydney Trains", "platforms": "4", "public_transport": "station", "railway": "station", "ref": "214710", "train": "yes", "wheelchair": "yes", "wikidata": "Q13219875", "wikipedia": "en:Seven Hills railway station"}}, {"type": "node", "id": 6616036388, "lat": -33.9245421, "lon": 150.9276398, "tags": {"fare_gates": "yes", "name": "Liverpool", "network": "Sydney Trains", "network:wikidata": "Q7660181", "operator": "Sydney Trains", "platforms": "4", "public_transport": "station", "railway": "station", "railway:ref": "BVH", "ref": "217020", "train": "yes", "wheelchair": "yes", "wikidata": "Q12061337"}}, {"type": "node", "id": 6627573513, "lat": -33.8808812, "lon": 150.9761642, "tags": {"fare_gates": "no", "name": "Villawood", "network": "Sydney Trains", "network:wikidata": "Q7660181", "operator": "Sydney Trains", "platforms": "2", "public_transport": "station", "railway": "station", "ref": "216320", "source": "bing", "train": "yes", "wheelchair": "no", "wikidata": "Q7930979"}}, {"type": "way", "id": 317138648, "nodes": [3233767807, 3233767808, 3233767809, 3233767810, 3233767807], "tags": {"area": "yes", "fare_gates": "no", "name": "Leppington", "network": "Sydney Trains", "network:wikidata": "Q7660181", "platforms": "4", "public_transport": "station", "railway": "station", "railway:ref": "LEP", "ref": "217933", "train": "yes", "wheelchair": "yes", "wikidata": "Q6527804", "wikipedia": "en:Leppington railway station"}}]}